FID,the_geom,FIELD_ID,FLD_NAME,FLD_NAME2,REG_CODE,REG_NAME,COUNTRY,STATE,LAT_DD,LON_DD,LOC_ACCY,ON_OFF_LOC,DISC_YR,FIELD_TYPE,SIZE_CLASS,EUR_MMBOE,RSVS_MMBOE,EURO_MMBO,EURG_TCFG,EURC_MMBO,HL10_MMBOE,HL20_MMBOE,HL50_MMBOE,PRV_USGS_C,PRV_USGS_N,BSN_TELL_C,BSN_TELL_N,BSN_BALLY,RSVR_NAME,RSVR_LITH1,RSVR_LITH2,ERA,SYSTEM,SERIES,STAGE,AGE_CODE,RSVR_DEPFT,RSVR_DEPKM,TRAP_CLASS,TRAP_TYPE,TRAP_DESC,REFERENCES,COMMENTS
giant_oil_and_gas_fields_of_the_world_co_yxz.1,POINT (-92 26),995,Julia,,A,NORTH AMERICA,United States,USA - Gulf of Mexico Deepwater,26,-92,C,Offshore,2007,Oil,Giant,1000,1000,1000,-99999.99,-99999.99,1000,1000,1000,5097,Gulf Cenozoic OCS,BS000000271,WEST GULF COAST TERTIARY,TYPE 1,,UNKNOWN,,Unknown,,,,,-99999.99,-99999.99,Unknown,,,1203,
giant_oil_and_gas_fields_of_the_world_co_yxz.2,POINT (11.86126 -8.828139),996,Pazflor,,F,AFRICA,Angola,,-8.828139,11.86126,C,Offshore,2008,Oil,Giant,590,590,590,-99999.99,-99999.99,590,590,590,7203,West-central Coastal,BS000000048,KWANZA,TYPE 1,,UNKNOWN,,Unknown,,,,,-99999.99,-99999.99,Unknown,,,,
giant_oil_and_gas_fields_of_the_world_co_yxz.3,POINT (47.266667 31.1),1,West Qurna,,E,MIDDLE EAST,Iraq,,31.1,47.266667,B,Onshore,1973,Oil,Supergiant,11374.167,4204.653,9800,9.445,-99999.99,1327.164,3885.279,7401.515,2024,Mesopotamian Foredeep Basin,BS000000038,WIDYAN - NORTH ARABIAN GULF,TYPE 1,,CARBONATE,marly limestones,Mesozoic,Cretaceous,Lower Cretaceous,,MZ_CT_L,12139,3.7,Structural,Anticline,Anticlinal shoals,"3, 38, 73, 74, 75, 883, 949",
giant_oil_and_gas_fields_of_the_world_co_yxz.4,POINT (72.1 19.166667),2,Bassein,,G,ASIA AND OCEANIA,India,,19.166667,72.1,B,Offshore,1977,Gas,Giant,1362.613,560.556,-99999.99,6.981,199,209.78,534.649,937.24,8043,Bombay,BS000000028,MUMBAI - SAURASHTRA,TYPE 2,,CARBONATE,limestone,Cenozoic,Neogene,Miocene,,CZ_NG_MIO,6000,1.83,Structural,Anticline,,"2, 3, 290, 291",
giant_oil_and_gas_fields_of_the_world_co_yxz.5,POINT (49.87899 30.99227),3,Karanj,,E,MIDDLE EAST,Iran,,30.99227,49.87899,B,Onshore,1963,Gas,Supergiant,6513.94,1881.263,5731.5,4.695,-99999.99,380.087,1573.488,3690.214,2030,Zagros Fold Belt,BS000000039,ZAGROS FOLDBELT,TYPE 2,,CARBONATE,,Cenozoic,Paleogene,Oligocene,,CZ_PG_OLI,5492,1.67,Structural,Anticline,,"1, 2, 3, 38, 653, 646, 1094",
giant_oil_and_gas_fields_of_the_world_co_yxz.6,POINT (49.861275 30.389358),4,Rag-E-Safid,,E,MIDDLE EAST,Iran,,30.389358,49.861275,A,Onshore,1964,Gas,Supergiant,14980.602,4429.4,4995.5,59.911,-99999.99,936.839,3746.253,8605.109,2030,Zagros Fold Belt,BS000000039,ZAGROS FOLDBELT,TYPE 2,,CARBONATE,,Cenozoic,Paleogene,Oligocene,,CZ_PG_OLI,4400,1.34,Structural,Anticline,,"1, 2, 3, 62, 1094",
giant_oil_and_gas_fields_of_the_world_co_yxz.7,POINT (50.01747 30.56692),5,Pazanan,,E,MIDDLE EAST,Iran,,30.56692,50.01747,B,Onshore,1936,Gas,Supergiant,6657.933,1095.06,1854.6,28.82,-99999.99,59.809,631.037,2594.332,2030,Zagros Fold Belt,BS000000039,ZAGROS FOLDBELT,TYPE 2,,CARBONATE,dolomitic limestone,Cenozoic,Paleogene,Oligocene,,CZ_PG_OLI,4701,1.43,Structural,Anticline,,"1, 2, 3, 661, `094",
giant_oil_and_gas_fields_of_the_world_co_yxz.8,POINT (44.916667 34.083333),6,Mansuriyah,,E,MIDDLE EAST,Iraq,,34.083333,44.916667,B,Onshore,1978,Gas,Giant,600,253.726,50,3.3,-99999.99,99.001,243.722,418.455,2024,Mesopotamian Foredeep Basin,BS000000039,ZAGROS FOLDBELT,TYPE 2,,CARBONATE,limestone,Cenozoic,Paleogene,Oligocene,,CZ_PG_OLI,4003,1.22,Structural,Anticline,,"3, 77, 686, 883",
giant_oil_and_gas_fields_of_the_world_co_yxz.9,POINT (51.5 35),7,Saradjeh,Serajeh,E,MIDDLE EAST,Iran,,35,51.5,B,Onshore,1958,Gas,Giant,833.333,214.715,-99999.99,5,-99999.99,34.385,169.277,440.484,2091,Central Iranian Basins,BS000000018,CENTRAL IRAN - KAVIR,TYPE 2,,CARBONATE,,Cenozoic,Paleogene,Oligocene,,CZ_PG_OLI,12180,3.71,Structural,Anticline,,"1, 2, 65, 993",
giant_oil_and_gas_fields_of_the_world_co_yxz.10,POINT (49.933333 31),8,Paris,Faris,E,MIDDLE EAST,Iran,,31,49.933333,B,Onshore,1964,Gas,Giant,3825,1130.96,3000,4.95,-99999.99,239.203,956.532,2197.144,2030,Zagros Fold Belt,BS000000039,ZAGROS FOLDBELT,TYPE 2,,CARBONATE,,Cenozoic,Paleogene,Oligocene,,CZ_PG_OLI,5000,1.52,Structural,Anticline,,"1, 2",
giant_oil_and_gas_fields_of_the_world_co_yxz.11,POINT (0.4 42.583333),9,Serrablo,,C,WESTERN EUROPE,Spain,,42.583333,0.4,B,Onshore,1979,Gas,Giant,583.333,253.658,-99999.99,3.5,-99999.99,103.158,245.307,412.509,4044,Pyrenean Foothills-Ebro Basin,BS000000743,SOUTH PYRENEAN,TYPE 2,,CARBONATE,carbonate turbidite megabreccias,Cenozoic,Paleogene,Eocene,,CZ_PG_EOC,6500,1.98,Structural,Anticline,,"2, 493, 549",Tellus classification based on proximity
giant_oil_and_gas_fields_of_the_world_co_yxz.12,POINT (69.2 28.65),10,Sui,,G,ASIA AND OCEANIA,Pakistan,,28.65,69.2,B,Onshore,1952,Gas,Giant,1872.687,423.62,-99999.99,11.236,-99999.99,50.985,308.996,910.878,8025,Sulaiman-Kirthar,BS000000036,SULAIMAN FOLDBELT,TYPE 2,,CARBONATE,limestone,Cenozoic,Paleogene,Eocene,,CZ_PG_EOC,3675,1.12,Structural,Anticline,,"1, 2, 3, 38, 726, 728",
giant_oil_and_gas_fields_of_the_world_co_yxz.13,POINT (68.620833 28.641667),11,Uch,,G,ASIA AND OCEANIA,Pakistan,,28.641667,68.620833,B,Onshore,1955,Gas,Giant,675,162.821,-99999.99,4.05,-99999.99,22.624,123.577,342.261,8025,Sulaiman-Kirthar,BS000000036,SULAIMAN FOLDBELT,TYPE 2,,CARBONATE,limestone,Cenozoic,Paleogene,Eocene,,CZ_PG_EOC,3281,1,Structural,Anticline,,"3, 38, 554",
giant_oil_and_gas_fields_of_the_world_co_yxz.14,POINT (62.483333 39.333333),12,Bagadzhin,,D,EASTERN EUROPE AND FORMER USSR,Turkmenistan,,39.333333,62.483333,B,Onshore,1971,Gas,Giant,1583.333,555.876,-99999.99,9.5,-99999.99,160.836,504.636,1002.155,1154,Amu-Darya Basin,BS000000066,AMU-DAR'YA,TYPE 2,,CARBONATE,,Mesozoic,Cretaceous,,,MZ_CT,10100,3.08,Structural,Anticline,,2,
giant_oil_and_gas_fields_of_the_world_co_yxz.15,POINT (61.051925 40.0247),13,Kirpichlin,,D,EASTERN EUROPE AND FORMER USSR,Turkmenistan,,40.0247,61.051925,A,Onshore,1972,Gas,Giant,1431.667,515.685,-99999.99,8.59,-99999.99,155.866,472.385,918.806,1154,Amu-Darya Basin,BS000000066,AMU-DAR'YA,TYPE 2,,CARBONATE,,Mesozoic,Cretaceous,,,MZ_CT,9900,3.02,Structural,Anticline,,2,
giant_oil_and_gas_fields_of_the_world_co_yxz.16,POINT (51.5 30.583333),14,Mokhtar,,E,MIDDLE EAST,Iran,,30.583333,51.5,B,Onshore,1992,Gas,Giant,657.5,425.608,-99999.99,3.945,-99999.99,286.244,433.827,556.755,2030,Zagros Fold Belt,BS000000039,ZAGROS FOLDBELT,TYPE 2,,CARBONATE,,Mesozoic,Cretaceous,,,MZ_CT,5003,1.53,Structural,Anticline,,"3, 4, 38, 62, 875",
giant_oil_and_gas_fields_of_the_world_co_yxz.17,POINT (55.583333 26.7),15,Qishm-Salag,,E,MIDDLE EAST,Iran,,26.7,55.583333,B,Onshore,1961,Gas,Giant,1875,517.003,-99999.99,11.25,-99999.99,95.246,422.595,1033.167,2030,Zagros Fold Belt,BS000000039,ZAGROS FOLDBELT,TYPE 2,,CARBONATE,,Mesozoic,Cretaceous,,,MZ_CT,10255,3.13,Structural,Anticline,,"2, 662",
giant_oil_and_gas_fields_of_the_world_co_yxz.18,POINT (56.427872 27.339656),16,Sarhun,,E,MIDDLE EAST,Iran,,27.339656,56.427872,A,Onshore,1978,Gas,Giant,1166.667,493.356,-99999.99,7,-99999.99,192.502,473.905,813.663,2030,Zagros Fold Belt,BS000000039,ZAGROS FOLDBELT,TYPE 2,,CARBONATE,,Mesozoic,Cretaceous,,,MZ_CT,-99999.99,-99999.99,Structural,Anticline,,2,
giant_oil_and_gas_fields_of_the_world_co_yxz.19,POINT (45.9 33.7),17,Tang-i-bijar,,E,MIDDLE EAST,Iran,,33.7,45.9,B,Onshore,1965,Gas,Giant,565,171.072,-99999.99,3.39,-99999.99,37.869,146.273,329.075,2030,Zagros Fold Belt,BS000000039,ZAGROS FOLDBELT,TYPE 2,,CARBONATE,,Mesozoic,Cretaceous,,,MZ_CT,4000,1.22,Structural,Anticline,,2,
giant_oil_and_gas_fields_of_the_world_co_yxz.20,POINT (-0.71667 43.41667),18,Lacq,,C,WESTERN EUROPE,France,,43.41667,-0.71667,B,Onshore,1951,Gas,Giant,1348.333,298.652,-99999.99,8.09,-99999.99,34.251,214.9,646.805,4044,Pyrenean Foothills-Ebro Basin,BS000000379,AQUITAINE,TYPE 2,,CARBONATE,,Mesozoic,Cretaceous,,,MZ_CT,13300,4.05,Structural,Anticline,,"1, 2, 282",
giant_oil_and_gas_fields_of_the_world_co_yxz.21,POINT (-0.5 43.25),19,Mellion-Rousse,,C,WESTERN EUROPE,France,,43.25,-0.5,B,Onshore,1965,Gas,Giant,583.333,176.623,-99999.99,3.5,-99999.99,39.098,151.019,339.753,4044,Pyrenean Foothills-Ebro Basin,BS000000379,AQUITAINE,TYPE 2,,CARBONATE,,Mesozoic,Cretaceous,,,MZ_CT,14900,4.54,Structural,Anticline,,"1, 2, 283, 15",
giant_oil_and_gas_fields_of_the_world_co_yxz.22,POINT (-94.395692 32.623319),20,Carthage,Cotton Valley,A,NORTH AMERICA,United States,USA - Texas,32.623319,-94.395692,A,Onshore,1936,Gas,Giant,1050,172.698,-99999.99,6,50,9.432,99.519,409.143,5048,East Texas Basin,BS000000497,EAST TEXAS SALT,TYPE 1,,CARBONATE,limestone,Mesozoic,Cretaceous,,,MZ_CT,6000,1.83,Structural,Anticline,,"1, 2, 344, 345, 346",
giant_oil_and_gas_fields_of_the_world_co_yxz.23,POINT (-92 32.5),21,Monroe,,A,NORTH AMERICA,United States,USA - Louisiana,32.5,-92,B,Onshore,1916,Gas,Giant,1203.333,138.37,-99999.99,7.22,-99999.99,2.703,57.034,355.374,5049,Louisiana-Mississippi Salt Basins,BS000000639,NORTH LOUISIANA SALT,TYPE 1,,CARBONATE,limestone,Mesozoic,Cretaceous,,,MZ_CT,2200,0.67,Structural,Anticline,,"1, 2, 384, 385",
giant_oil_and_gas_fields_of_the_world_co_yxz.24,POINT (55.432094 25.159061),22,Margham,,E,MIDDLE EAST,UAE,UAE - Dubai,25.159061,55.432094,A,Onshore,1982,Gas,Giant,680.91,322.634,-99999.99,2.681,234,148.24,317.707,501.955,2019,Rub Al Khali Basin,BS000000033,RUB AL KHALI,TYPE 1,,CARBONATE,limestone,Mesozoic,Cretaceous,,,MZ_CT,10499,3.2,Structural,Anticline,,"3, 38, 861, 628",
giant_oil_and_gas_fields_of_the_world_co_yxz.25,POINT (62.55 40.216667),23,Gugurtlinskoye,,D,EASTERN EUROPE AND FORMER USSR,Uzbekistan,,40.216667,62.55,B,Onshore,1965,Gas,Giant,666.667,201.855,-99999.99,4,-99999.99,44.683,172.594,388.289,1154,Amu-Darya Basin,BS000000066,AMU-DAR'YA,TYPE 2,,CARBONATE,limestone,Mesozoic,Cretaceous,,,MZ_CT,3600,1.1,Structural,Anticline,,"1, 2",
giant_oil_and_gas_fields_of_the_world_co_yxz.26,POINT (50.560639 26.06734),24,Awali,Bahrain Field,E,MIDDLE EAST,Bahrain,,26.06734,50.560639,A,Onshore,1932,Gas,Giant,2087.773,318.71,900,6.756,62,14.214,172.268,769.648,2021,Greater Ghawar Uplift,BS000000038,WIDYAN - NORTH ARABIAN GULF,TYPE 1,,CARBONATE,limestone,Mesozoic,Cretaceous,Lower Cretaceous,,MZ_CT_L,1800,0.55,Structural,Anticline,,"1, 2, 3, 38, 97, 179",
giant_oil_and_gas_fields_of_the_world_co_yxz.27,POINT (49.116667 28.95),25,Dorra,,E,MIDDLE EAST,Divided Neutral Zone: Kuwait/Saudi Arabia,,28.95,49.116667,B,Offshore,1967,Gas,Giant,1566.667,497.814,400,7,-99999.99,120.615,434.7,938.127,2024,Mesopotamian Foredeep Basin,BS000000038,WIDYAN - NORTH ARABIAN GULF,TYPE 1,,CARBONATE,limestone,Mesozoic,Cretaceous,Lower Cretaceous,,MZ_CT_L,9500,2.9,Structural,Anticline,,"2, 3, 713, 714, 951",
giant_oil_and_gas_fields_of_the_world_co_yxz.28,POINT (53.11667 25.52778),26,Salman,,E,MIDDLE EAST,Iran,,25.52778,53.11667,B,Offshore,1965,Gas,Giant,1638.167,496.009,571.5,6.4,-99999.99,109.797,424.106,954.123,2019,Rub Al Khali Basin,BS000000033,RUB AL KHALI,TYPE 1,,CARBONATE,dolomite,Mesozoic,Jurassic,Upper Jurassic,,MZ_JR_U,7840,2.39,Structural,Anticline,,"3, 71",
giant_oil_and_gas_fields_of_the_world_co_yxz.29,POINT (49.415481 23.805772),27,Tinat,,E,MIDDLE EAST,Saudi Arabia,,23.805772,49.415481,A,Onshore,1982,Gas,Giant,891.667,422.496,300,3.25,50,194.123,416.045,657.321,2021,Greater Ghawar Uplift,BS000000038,WIDYAN - NORTH ARABIAN GULF,TYPE 1,,CARBONATE,limestone,Mesozoic,Jurassic,Upper Jurassic,,MZ_JR_U,5500,1.68,Structural,Anticline,,"3, 548",
giant_oil_and_gas_fields_of_the_world_co_yxz.30,POINT (52.55 25.6),28,Maydan Mahzam,,E,MIDDLE EAST,Qatar,,25.6,52.55,B,Offshore,1963,Gas,Giant,1623.673,468.926,1238,2.314,-99999.99,94.741,392.21,919.828,2019,Rub Al Khali Basin,BS000000033,RUB AL KHALI,TYPE 1,,CARBONATE,dolomite,Mesozoic,Jurassic,Upper Jurassic,,MZ_JR_U,6870,2.09,Structural,Anticline,,"1, 2, 3, 731, 737, 738, 1145",
giant_oil_and_gas_fields_of_the_world_co_yxz.31,POINT (53.183333 21.583333),29,Suhul,,E,MIDDLE EAST,Saudi Arabia,,21.583333,53.183333,B,Onshore,1977,Gas,Giant,700,287.968,-99999.99,3,200,107.768,274.659,481.478,2019,Rub Al Khali Basin,BS000000033,RUB AL KHALI,TYPE 1,,CARBONATE,limestone,Mesozoic,Jurassic,Upper Jurassic,,MZ_JR_U,9800,2.99,Structural,Anticline,,"3, 66",
giant_oil_and_gas_fields_of_the_world_co_yxz.32,POINT (60.766667 36.566667),30,Khangiran,,E,MIDDLE EAST,Iran,,36.566667,60.766667,A,Onshore,1968,Gas,Giant,2042.467,665.113,-99999.99,12.255,-99999.99,168.53,586.7,1240.108,1154,Amu-Darya Basin,BS000000066,AMU-DAR'YA,TYPE 2,,CARBONATE,limestone,Mesozoic,Jurassic,Upper Jurassic,,MZ_JR_U,8737,2.66,Structural,Anticline,,"3, 654",
giant_oil_and_gas_fields_of_the_world_co_yxz.33,POINT (52.7 25.43333),31,Bul Hanine,,E,MIDDLE EAST,Qatar,,25.43333,52.7,B,Offshore,1965,Gas,Giant,2643.963,800.547,1865,4.674,-99999.99,177.21,684.497,1539.933,2019,Rub Al Khali Basin,BS000000033,RUB AL KHALI,TYPE 1,,CARBONATE,shelly limestone,Mesozoic,Jurassic,Upper Jurassic,,MZ_JR_U,7400,2.26,Structural,Anticline,,"2, 3, 731, 732, 1145",
giant_oil_and_gas_fields_of_the_world_co_yxz.34,POINT (67.033333 38.966667),32,Shurtan,Uzbekistan,D,EASTERN EUROPE AND FORMER USSR,Uzbekistan,,38.966667,67.033333,B,Onshore,1974,Gas,Giant,2545.71,966.096,-99999.99,15.274,-99999.99,318.354,900.243,1679.691,1154,Amu-Darya Basin,BS000000066,AMU-DAR'YA,TYPE 2,,CARBONATE,coral limestone,Mesozoic,Jurassic,Upper Jurassic,,MZ_JR_U,9515,2.9,Structural,Anticline,,"2, 3, 38",
giant_oil_and_gas_fields_of_the_world_co_yxz.35,POINT (53.14973 25.49461),33,Abu Al Bukhoosh,Abu Koosh,E,MIDDLE EAST,UAE,UAE - Abu Dhabi,25.49461,53.14973,B,Offshore,1969,Gas,Giant,1027.47,342.986,197,4.983,-99999.99,90.863,305.547,632.547,2019,Rub Al Khali Basin,BS000000033,RUB AL KHALI,TYPE 1,,CARBONATE,limestone,Mesozoic,Jurassic,Upper Jurassic,,MZ_JR_U,7850,2.39,Structural,Anticline,,"3, 72",
giant_oil_and_gas_fields_of_the_world_co_yxz.36,POINT (64.509667 39.139639),34,Dengizkul-Khauzak-Shady,,D,EASTERN EUROPE AND FORMER USSR,Uzbekistan,,39.139639,64.509667,A,Onshore,1966,Gas,Giant,597.342,185.258,-99999.99,3.499,14,42.909,160.099,352.768,1154,Amu-Darya Basin,BS000000066,AMU-DAR'YA,TYPE 2,,CARBONATE,limestone,Mesozoic,Jurassic,Upper Jurassic,,MZ_JR_U,7598,2.32,Structural,Anticline,,"2, 3",
giant_oil_and_gas_fields_of_the_world_co_yxz.37,POINT (52.55 24.916667),35,Satah,,E,MIDDLE EAST,UAE,UAE - Abu Dhabi,24.916667,52.55,B,Offshore,1975,Gas,Giant,761.667,296.834,200,3.37,-99999.99,102.085,278.846,509.571,2019,Rub Al Khali Basin,BS000000033,RUB AL KHALI,TYPE 1,,CARBONATE,,Mesozoic,Jurassic,Lower Jurassic,,MZ_JR_L,12000,3.66,Structural,Anticline,,"2, 784, 865",
giant_oil_and_gas_fields_of_the_world_co_yxz.38,POINT (64.320936 39.067683),36,Samantepe,,D,EASTERN EUROPE AND FORMER USSR,Uzbekistan,,39.067683,64.320936,A,Onshore,1964,Gas,Giant,583.333,172.478,-99999.99,3.5,-99999.99,36.48,145.876,335.076,1154,Amu-Darya Basin,BS000000066,AMU-DAR'YA,TYPE 2,,CARBONATE,,Mesozoic,Jurassic,Lower Jurassic,,MZ_JR_L,7700,2.35,Structural,Anticline,,"1, 2",
giant_oil_and_gas_fields_of_the_world_co_yxz.39,POINT (64.517072 38.998667),37,Urtabalak,,D,EASTERN EUROPE AND FORMER USSR,Uzbekistan,,38.998667,64.517072,A,Onshore,1963,Gas,Giant,598.333,172.802,-99999.99,3.59,-99999.99,34.913,144.532,338.962,1154,Amu-Darya Basin,BS000000066,AMU-DAR'YA,TYPE 2,,CARBONATE,,Mesozoic,Jurassic,Lower Jurassic,,MZ_JR_L,8200,2.5,Structural,Anticline,,"1, 2, 38",
giant_oil_and_gas_fields_of_the_world_co_yxz.40,POINT (68.766667 39.75),38,Beurdeshik,Buyerdeshik,D,EASTERN EUROPE AND FORMER USSR,Tajikistan,,39.75,68.766667,B,Onshore,1969,Gas,Giant,500,166.908,-99999.99,3,-99999.99,44.217,148.689,307.818,1158,Tian Shan Foldbelt,BS000000069,FERGANA,TYPE 2,,CARBONATE,,Mesozoic,Jurassic,Lower Jurassic,,MZ_JR_L,4920,1.5,Structural,Anticline,,"1, 2, 826",Tellus classification based on proximity
giant_oil_and_gas_fields_of_the_world_co_yxz.41,POINT (52.584689 27.522772),39,Assaluyeh,,E,MIDDLE EAST,Iran,,27.522772,52.584689,A,Onshore,1988,Gas,Giant,666.667,378.995,-99999.99,4,-99999.99,219.97,382.945,534.072,2030,Zagros Fold Belt,BS000000039,ZAGROS FOLDBELT,TYPE 2,,CARBONATE,,Mesozoic,Triassic,Upper Triassic,,MZ_TR_U,7218,2.2,Structural,Anticline,,"3, 551",
giant_oil_and_gas_fields_of_the_world_co_yxz.42,POINT (53.219256 27.701908),40,Shanul,,E,MIDDLE EAST,Iran,,27.701908,53.219256,A,Onshore,1995,Gas,Giant,1058.333,758.746,-99999.99,5.9,75,567.222,774.797,934.219,2030,Zagros Fold Belt,BS000000039,ZAGROS FOLDBELT,TYPE 2,,CARBONATE,,Mesozoic,Triassic,Upper Triassic,,MZ_TR_U,9843,3,Structural,Anticline,,"3, 4, 38, 665, 875",
giant_oil_and_gas_fields_of_the_world_co_yxz.43,POINT (105.839039 29.191781),41,Huangkuanshan,,G,ASIA AND OCEANIA,China,,29.191781,105.839039,A,Onshore,1955,Gas,Giant,833.333,201.013,-99999.99,5,-99999.99,27.931,152.564,422.544,3142,Sichuan Basin,BS000000244,SICHUAN,TYPE 3,,CARBONATE,,Mesozoic,Triassic,Upper Triassic,,MZ_TR_U,3000,0.91,Structural,Anticline,,"2, 225",
giant_oil_and_gas_fields_of_the_world_co_yxz.44,POINT (52.807297 28.584819),42,Aghar,,E,MIDDLE EAST,Iran,,28.584819,52.807297,A,Onshore,1974,Gas,Giant,1493.167,566.656,-99999.99,8.5,77,186.728,528.031,985.21,2030,Zagros Fold Belt,BS000000039,ZAGROS FOLDBELT,TYPE 2,,CARBONATE,dolomitic limestone,Mesozoic,Triassic,Upper Triassic,,MZ_TR_U,7500,2.29,Structural,Anticline,,"2, 3, 38, 644",
giant_oil_and_gas_fields_of_the_world_co_yxz.45,POINT (51.240033 28.392267),43,Kuh-I-Mund,,E,MIDDLE EAST,Iran,,28.392267,51.240033,B,Onshore,1974,Gas,Giant,2013.333,764.059,330,10.1,-99999.99,251.778,711.978,1328.422,2030,Zagros Fold Belt,BS000000039,ZAGROS FOLDBELT,TYPE 2,,CARBONATE,limestone,Mesozoic,Triassic,Upper Triassic,,MZ_TR_U,11788,3.59,Structural,Anticline,,3,
giant_oil_and_gas_fields_of_the_world_co_yxz.46,POINT (52.3 27.783333),44,Nar,,E,MIDDLE EAST,Iran,,27.783333,52.3,B,Onshore,1975,Gas,Giant,2333.333,909.338,-99999.99,14,-99999.99,312.734,854.232,1561.049,2030,Zagros Fold Belt,BS000000039,ZAGROS FOLDBELT,TYPE 2,,CARBONATE,,Mesozoic,Triassic,Middle Triassic,,MZ_TR_M,6900,2.1,Structural,Anticline,,"2, 70",
giant_oil_and_gas_fields_of_the_world_co_yxz.47,POINT (46.728028 33.422461),45,Kabir Kuh,,E,MIDDLE EAST,Iran,,33.422461,46.728028,B,Onshore,1973,Gas,Giant,933.333,345.022,-99999.99,5.6,-99999.99,108.904,318.815,607.348,2030,Zagros Fold Belt,BS000000039,ZAGROS FOLDBELT,TYPE 2,,CARBONATE,limestone,Paleozoic,Permian,Lopingian,,PZ_PR_LOP,7720,2.35,Structural,Anticline,,"3, 550",
giant_oil_and_gas_fields_of_the_world_co_yxz.48,POINT (57.271992 63.584164),46,Vuktyl,,D,EASTERN EUROPE AND FORMER USSR,Russia,,63.584164,57.271992,A,Onshore,1964,Gas,Giant,742.933,219.667,27.7,3.311,163,46.461,185.788,426.753,1008,Timan-Pechora Basin,BS000000772,TIMAN - PECHORA,TYPE 2,,CARBONATE,limestone,Paleozoic,Permian,Guadalupian,,PZ_PR_GUA,6890,2.1,Structural,Anticline,,"1, 2, 3, 38, 121",
giant_oil_and_gas_fields_of_the_world_co_yxz.49,POINT (55.083333 67.6),47,Layavozh,,D,EASTERN EUROPE AND FORMER USSR,Russia,,67.6,55.083333,B,Onshore,1969,Gas,Giant,857.258,286.167,61.7,4.437,56,75.811,254.93,527.759,1008,Timan-Pechora Basin,BS000000772,TIMAN - PECHORA,TYPE 2,,CARBONATE,limestone,Paleozoic,Permian,Cisuralian,,PZ_PR_CIS,7293,2.22,Structural,Anticline,,"1, 2, 3, 748, 958",
giant_oil_and_gas_fields_of_the_world_co_yxz.50,POINT (56.666075 57.19465),48,Mazunin,,D,EASTERN EUROPE AND FORMER USSR,Russia,,57.19465,56.666075,A,Onshore,1960,Gas,Giant,2250,606.407,-99999.99,13.5,-99999.99,106.643,489.843,1222.735,1015,Volga-Ural Region,BS000000801,VOLGA - URALS,TYPE 2,,CARBONATE,,Paleozoic,Carboniferous,Mississippian,,PZ_CB_MS,5000,1.52,Structural,Anticline,,2,
giant_oil_and_gas_fields_of_the_world_co_yxz.51,POINT (83.927964 38.807717),49,Tazhong,,G,ASIA AND OCEANIA,China,,38.807717,83.927964,A,Onshore,1989,Gas,Giant,770,451.884,135,3,135,272.296,457.895,625.462,3154,Tarim Basin,BS000000078,TARIM,TYPE 2,,CARBONATE,sandy dolomite,Paleozoic,Carboniferous,Mississippian,,PZ_CB_MS,11699,3.57,Structural,Anticline,,"3, 229, 251",
giant_oil_and_gas_fields_of_the_world_co_yxz.52,POINT (-102.5 30.666667),50,Puckett,,A,NORTH AMERICA,United States,USA - Texas,30.666667,-102.5,A,Onshore,1952,Gas,Giant,500,113.105,-99999.99,3,-99999.99,13.613,82.501,243.201,5044,Permian Basin,BS000000609,MIDLAND - PERMIAN,TYPE 2,,CARBONATE,dolomite,Paleozoic,Ordovician,Upper Ordovician,,PZ_OR_U,13370,4.08,Structural,Anticline,,"1, 2, 418",
giant_oil_and_gas_fields_of_the_world_co_yxz.53,POINT (47.65 32),51,Jabal Fauqui,Fakkeh,E,MIDDLE EAST,Iraq,,32,47.65,B,Onshore,1974,Oil,Giant,1000,379.5,1000,-99999.99,-99999.99,125.055,353.631,659.812,2030,Zagros Fold Belt,BS000000039,ZAGROS FOLDBELT,TYPE 2,,CARBONATE,,Cenozoic,Neogene,Miocene,,CZ_NG_MIO,10000,3.05,Structural,Anticline,,"2, 38, 66, 883",
giant_oil_and_gas_fields_of_the_world_co_yxz.54,POINT (47.233333 32.266667),52,Buzurgan,,E,MIDDLE EAST,Iraq,,32.266667,47.233333,B,Onshore,1970,Oil,Giant,1980,677.735,1800,1.08,-99999.99,187.664,609.569,1235.971,2030,Zagros Fold Belt,BS000000039,ZAGROS FOLDBELT,TYPE 2,,CARBONATE,limestone,Cenozoic,Neogene,Miocene,,CZ_NG_MIO,10000,3.05,Structural,Anticline,,"2, 38, 647, 949",
giant_oil_and_gas_fields_of_the_world_co_yxz.55,POINT (49.97303 30.99952),53,Parsi,,E,MIDDLE EAST,Iran,,30.99952,49.97303,B,Onshore,1964,Oil,Supergiant,5333.083,1576.863,3812,9.126,-99999.99,333.514,1333.663,3063.413,2030,Zagros Fold Belt,BS000000039,ZAGROS FOLDBELT,TYPE 2,,CARBONATE,limestone,Cenozoic,Neogene,Miocene,,CZ_NG_MIO,2750,0.84,Structural,Anticline,,"3, 661, 1094",
giant_oil_and_gas_fields_of_the_world_co_yxz.56,POINT (72 19.316667),54,"Bassein, North",,G,ASIA AND OCEANIA,India,,19.316667,72,B,Offshore,1976,Oil,Giant,550,220.185,550,-99999.99,-99999.99,79.006,208.454,373.097,8043,Bombay,BS000000028,MUMBAI - SAURASHTRA,TYPE 2,,CARBONATE,limestone,Cenozoic,Neogene,Miocene,,CZ_NG_MIO,5700,1.74,Structural,Anticline,,"2, 290",
giant_oil_and_gas_fields_of_the_world_co_yxz.57,POINT (47.403581 32.369903),55,Abu Ghirab,,E,MIDDLE EAST,Iraq,,32.369903,47.403581,A,Onshore,1971,Oil,Giant,1135.333,398.592,1040,0.572,-99999.99,115.328,361.851,718.598,2030,Zagros Fold Belt,BS000000039,ZAGROS FOLDBELT,TYPE 2,,CARBONATE,,Cenozoic,Paleogene,Oligocene,,CZ_PG_OLI,9810,2.99,Structural,Anticline,,"2, 3, 38, 667, 668",
giant_oil_and_gas_fields_of_the_world_co_yxz.58,POINT (48.644081 32.661925),56,Lab-E-Safid,,E,MIDDLE EAST,Iran,,32.661925,48.644081,A,Onshore,1969,Oil,Giant,990.907,330.78,508,2.897,-99999.99,87.63,294.674,610.037,2030,Zagros Fold Belt,BS000000039,ZAGROS FOLDBELT,TYPE 2,,CARBONATE,,Cenozoic,Paleogene,Oligocene,,CZ_PG_OLI,4800,1.46,Structural,Anticline,,"2, 3, 658, 659, 1094",
giant_oil_and_gas_fields_of_the_world_co_yxz.59,POINT (49.396658 31.04165),57,Marun,,E,MIDDLE EAST,Iran,,31.04165,49.396658,A,Onshore,1964,Oil,Supergiant,34508.102,10203.208,21962,75.277,-99999.99,2158.026,8629.565,19822.034,2030,Zagros Fold Belt,BS000000039,ZAGROS FOLDBELT,TYPE 2,,CARBONATE,,Cenozoic,Paleogene,Oligocene,,CZ_PG_OLI,7200,2.2,Structural,Anticline,,"1, 2, 3, 38, 179, 645, 1094",
giant_oil_and_gas_fields_of_the_world_co_yxz.60,POINT (44.569606 35.125197),58,Jambur,,E,MIDDLE EAST,Iraq,,35.125197,44.569606,A,Onshore,1954,Oil,Giant,4633.333,1093.758,3100,9.2,-99999.99,144.898,819.367,2317.008,2030,Zagros Fold Belt,BS000000039,ZAGROS FOLDBELT,TYPE 2,,CARBONATE,dolomitic limestone,Cenozoic,Paleogene,Oligocene,,CZ_PG_OLI,4200,1.28,Structural,Anticline,,"2, 3, 38, 673, 667, 949",
giant_oil_and_gas_fields_of_the_world_co_yxz.61,POINT (43.981506 34.876244),59,Ajil,Previously Saddam,E,MIDDLE EAST,Iraq,,34.876244,43.981506,A,Onshore,1978,Oil,Giant,916.667,387.637,750,1,-99999.99,151.251,372.354,639.306,2030,Zagros Fold Belt,BS000000039,ZAGROS FOLDBELT,TYPE 1,,CARBONATE,limestone,Cenozoic,Paleogene,Oligocene,,CZ_PG_OLI,2408,0.73,Structural,Anticline,,"3, 689, 690, 883, 1145",
giant_oil_and_gas_fields_of_the_world_co_yxz.62,POINT (44.038869 35.663097),60,Bai Hassan,,E,MIDDLE EAST,Iraq,,35.663097,44.038869,A,Onshore,1953,Oil,Giant,2266.667,523.743,2200,0.4,-99999.99,66.139,387.19,1117.898,2030,Zagros Fold Belt,BS000000039,ZAGROS FOLDBELT,TYPE 2,,CARBONATE,limestone,Cenozoic,Paleogene,Oligocene,,CZ_PG_OLI,1750,0.53,Structural,Anticline,,"1, 2, 3, 38, 674, 675, 883, 949",
giant_oil_and_gas_fields_of_the_world_co_yxz.63,POINT (47.4833 31.66531),61,Halfayah,,E,MIDDLE EAST,Iraq,,31.66531,47.4833,B,Onshore,1976,Oil,Giant,4726.667,1892.261,4610,0.7,-99999.99,678.969,1791.441,3206.372,2024,Mesopotamian Foredeep Basin,BS000000038,WIDYAN - NORTH ARABIAN GULF,TYPE 2,,CARBONATE,limestone,Cenozoic,Paleogene,Oligocene,,CZ_PG_OLI,2408,0.73,Structural,Anticline,,"2, 3, 678, 679, 883, 1145",
giant_oil_and_gas_fields_of_the_world_co_yxz.64,POINT (44.213931 35.465267),62,Khabbaz,,E,MIDDLE EAST,Iraq,,35.465267,44.213931,A,Onshore,1985,Oil,Giant,2500,1295.17,2000,3,-99999.99,670.046,1294.262,1921.201,2030,Zagros Fold Belt,BS000000039,ZAGROS FOLDBELT,TYPE 2,,CARBONATE,limestone,Cenozoic,Paleogene,Oligocene,,CZ_PG_OLI,-99999.99,-99999.99,Structural,Anticline,,"3, 38, 77, 949",
giant_oil_and_gas_fields_of_the_world_co_yxz.65,POINT (50.382192 30.195278),63,Bibi Hakimeh,,E,MIDDLE EAST,Iran,,30.195278,50.382192,A,Onshore,1961,Oil,Supergiant,7595.318,2094.293,5670.6,11.548,-99999.99,385.826,1711.863,4185.19,2030,Zagros Fold Belt,BS000000039,ZAGROS FOLDBELT,TYPE 2,,CARBONATE,limestone,Cenozoic,Paleogene,Oligocene,,CZ_PG_OLI,1100,0.34,Structural,Anticline,,"1, 2, 3, 38, 62, 1094",
giant_oil_and_gas_fields_of_the_world_co_yxz.66,POINT (50.80627 30.22009),64,Gachsaran,,E,MIDDLE EAST,Iran,,30.22009,50.80627,B,Onshore,1928,Oil,Supergiant,21430.025,3041.334,16246.5,31.101,-99999.99,110.581,1539.4,7474.02,2030,Zagros Fold Belt,BS000000039,ZAGROS FOLDBELT,TYPE 2,,CARBONATE,limestone,Cenozoic,Paleogene,Oligocene,,CZ_PG_OLI,425,0.13,Structural,Anticline,,"1, 2, 3, 62, 1094",
giant_oil_and_gas_fields_of_the_world_co_yxz.67,POINT (49.26333 31.66889),65,Naft Safid,,E,MIDDLE EAST,Iran,,31.66889,49.26333,B,Onshore,1938,Oil,Giant,1303.382,222.666,667.1,3.818,-99999.99,13.449,132.399,522.151,2030,Zagros Fold Belt,BS000000039,ZAGROS FOLDBELT,TYPE 2,,CARBONATE,limestone,Cenozoic,Paleogene,Oligocene,,CZ_PG_OLI,2400,0.73,Structural,Anticline,,"1, 2, 3, 38, 179, 1094",
giant_oil_and_gas_fields_of_the_world_co_yxz.68,POINT (51.297853 29.488281),66,Nargesi,,E,MIDDLE EAST,Iran,,29.488281,51.297853,A,Onshore,1980,Oil,Giant,500,223.652,500,-99999.99,-99999.99,94.766,217.676,358.514,2030,Zagros Fold Belt,BS000000039,ZAGROS FOLDBELT,TYPE 2,,CARBONATE,limestone,Cenozoic,Paleogene,Oligocene,,CZ_PG_OLI,-99999.99,-99999.99,Structural,Anticline,,"3, 38, 61, 62",
giant_oil_and_gas_fields_of_the_world_co_yxz.69,POINT (49.268169 31.994664),67,Masjid-i-Sulemain,,E,MIDDLE EAST,Iran,,31.994664,49.268169,A,Onshore,1908,Oil,Giant,1469,147.655,1329,0.84,-99999.99,1.896,52.77,388.3,2030,Zagros Fold Belt,BS000000039,ZAGROS FOLDBELT,TYPE 2,,CARBONATE,,Cenozoic,Paleogene,Oligocene,,CZ_PG_OLI,1600,0.49,Structural,Anticline,,"1, 2, 38, 645, 1094",
giant_oil_and_gas_fields_of_the_world_co_yxz.70,POINT (44.09711 35.700567),68,Kirkuk,,E,MIDDLE EAST,Iraq,,35.700567,44.09711,B,Onshore,1927,Oil,Supergiant,26370,3675.674,25000,8.22,-99999.99,126.961,1829.746,9070.315,2030,Zagros Fold Belt,BS000000039,ZAGROS FOLDBELT,TYPE 2,,CARBONATE,,Cenozoic,Paleogene,Oligocene,,CZ_PG_OLI,2800,0.85,Structural,Anticline,,"1, 2, 681, 682, 883, 949",
giant_oil_and_gas_fields_of_the_world_co_yxz.71,POINT (21.40278 28.68667),69,Gialo,Jalu,F,AFRICA,Libya,,28.68667,21.40278,A,Onshore,1961,Oil,Giant,1135.473,313.089,1087.14,0.29,-99999.99,57.68,255.917,625.671,2043,Sirte Basin,BS000000014,SIRTE,TYPE 1,,CARBONATE,limestone,Cenozoic,Paleogene,Eocene,,CZ_PG_EOC,2750,0.84,Structural,Anticline,,"1, 2, 3, 38, 475, 481",
giant_oil_and_gas_fields_of_the_world_co_yxz.72,POINT (12.50614 33.90364),70,Bouri,NC041-B,F,AFRICA,Libya,,33.90364,12.50614,B,Offshore,1977,Oil,Giant,532.6,219.103,532.6,-99999.99,-99999.99,81.996,208.976,366.336,2048,Pelagian Basin,BS000000011,PELAGIAN,TYPE 1,,CARBONATE,,Cenozoic,Paleogene,Paleocene,,CZ_PG_PAL,7750,2.36,Structural,Anticline,,"2, 3, 38, 619",
giant_oil_and_gas_fields_of_the_world_co_yxz.73,POINT (19.769944 28.912897),71,Nasser,Originally Zelten,F,AFRICA,Libya,,28.912897,19.769944,A,Onshore,1959,Oil,Giant,631.667,166.439,515,0.7,0,27.934,132.836,338.547,2043,Sirte Basin,BS000000014,SIRTE,TYPE 1,,CARBONATE,limestone,Cenozoic,Paleogene,Paleocene,,CZ_PG_PAL,4975,1.52,Structural,Anticline,,"1, 2, 3, 38, 476, 484",
giant_oil_and_gas_fields_of_the_world_co_yxz.74,POINT (19.898708 28.05975),72,Defa,Daffah,F,AFRICA,Libya,,28.05975,19.898708,A,Onshore,1960,Oil,Giant,1096.62,295.555,1096.62,-99999.99,-99999.99,51.976,238.743,595.945,2043,Sirte Basin,BS000000014,SIRTE,TYPE 1,,CARBONATE,argillaceous limestone,Cenozoic,Paleogene,Paleocene,,CZ_PG_PAL,4700,1.43,Structural,Anticline,,"1, 2, 3, 38, 482",
giant_oil_and_gas_fields_of_the_world_co_yxz.75,POINT (3.2 56.433333),73,Eldfisk,,C,WESTERN EUROPE,Norway,,56.433333,3.2,B,Offshore,1970,Oil,Giant,1002,342.975,502,3,-99999.99,94.969,308.479,625.476,4025,North Sea Graben,BS000000488,CENTRAL GRABEN,TYPE 1,,CARBONATE,,Cenozoic,Paleogene,Paleocene,,CZ_PG_PAL,9000,2.74,Structural,Anticline,,"2, 38, 89",
giant_oil_and_gas_fields_of_the_world_co_yxz.76,POINT (17.550275 29.789828),74,Bahi,,F,AFRICA,Libya,,29.789828,17.550275,A,Onshore,1958,Oil,Giant,600,154.595,600,-99999.99,-99999.99,24.758,121.879,317.148,2043,Sirte Basin,BS000000014,SIRTE,TYPE 1,,CARBONATE,,Cenozoic,Paleogene,Paleocene,,CZ_PG_PAL,6000,1.83,Structural,Anticline,,"2, 38, 482, 485, 486",
giant_oil_and_gas_fields_of_the_world_co_yxz.77,POINT (19.921503 28.298611),75,Waha,,F,AFRICA,Libya,,28.298611,19.921503,A,Onshore,1960,Oil,Giant,1400,377.32,1400,-99999.99,-99999.99,66.356,304.791,760.813,2043,Sirte Basin,BS000000014,SIRTE,TYPE 1,,CARBONATE,,Cenozoic,Paleogene,Paleocene,,CZ_PG_PAL,6600,2.01,Structural,Anticline,,"1, 2, 38, 478",
giant_oil_and_gas_fields_of_the_world_co_yxz.78,POINT (19.016917 28.362322),76,Beda,,F,AFRICA,Libya,,28.362322,19.016917,A,Onshore,1959,Oil,Giant,732.107,192.904,703.16,0.174,-99999.99,32.376,153.957,392.378,2043,Sirte Basin,BS000000014,SIRTE,TYPE 1,,CARBONATE,limestone,Cenozoic,Paleogene,Paleocene,,CZ_PG_PAL,3310,1.01,Structural,Anticline,,"3, 38, 482",
giant_oil_and_gas_fields_of_the_world_co_yxz.79,POINT (53.84903 22.93675),77,Shah,"With Asab, replaces Abu Jidu",E,MIDDLE EAST,UAE,UAE - Abu Dhabi,22.93675,53.84903,A,Onshore,1966,Oil,Giant,900,279.124,900,-99999.99,-99999.99,64.65,241.216,531.506,2019,Rub Al Khali Basin,BS000000033,RUB AL KHALI,TYPE 1,,CARBONATE,,Mesozoic,Cretaceous,Upper Cretaceous,,MZ_CT_U,3650,1.11,Structural,Anticline,,"2, 3, 38, 625, 1145",
giant_oil_and_gas_fields_of_the_world_co_yxz.80,POINT (43.6 33.45),78,"Baghdad, West",,E,MIDDLE EAST,Iraq,,33.45,43.6,B,Onshore,1958,Oil,Giant,1023.333,263.67,1000,0.14,-99999.99,42.225,207.872,540.914,2024,Mesopotamian Foredeep Basin,BS000000038,WIDYAN - NORTH ARABIAN GULF,TYPE 1,,CARBONATE,dolomitic limestone,Mesozoic,Cretaceous,Upper Cretaceous,,MZ_CT_U,2385,0.73,Structural,Anticline,,"3, 669, 672",
giant_oil_and_gas_fields_of_the_world_co_yxz.81,POINT (42.13333 36.93333),79,Suwaidiyah,Souedie,E,MIDDLE EAST,Syria,,36.93333,42.13333,B,Onshore,1959,Oil,Giant,753.433,198.523,707.83,0.256,3,33.319,158.442,403.808,2030,Zagros Fold Belt,BS000000035,SOUTHEAST TURKEY FOLDBELT,TYPE 1,,CARBONATE,dolomitic limestone,Mesozoic,Cretaceous,Upper Cretaceous,,MZ_CT_U,4429,1.35,Structural,Anticline,,"2, 3, 38, 821, 822",
giant_oil_and_gas_fields_of_the_world_co_yxz.82,POINT (21.4302 29.186744),80,Augila-Nafoora,,F,AFRICA,Libya,,29.186744,21.4302,A,Onshore,1956,Oil,Giant,1083.5,267.113,833.5,1.5,-99999.99,38.922,205.357,557.059,2043,Sirte Basin,BS000000014,SIRTE,TYPE 1,,CARBONATE,limestone,Mesozoic,Cretaceous,Upper Cretaceous,,MZ_CT_U,8250,2.52,Structural,Anticline,,"1, 2, 3, 38, 483",
giant_oil_and_gas_fields_of_the_world_co_yxz.83,POINT (49.61814 28.25272),81,Lawhah,,E,MIDDLE EAST,Saudi Arabia,,28.25272,49.61814,B,Offshore,1975,Oil,Giant,1283.333,500.136,1200,0.5,-99999.99,172.004,469.828,858.577,2024,Mesopotamian Foredeep Basin,BS000000038,WIDYAN - NORTH ARABIAN GULF,TYPE 1,,CARBONATE,limestone,Mesozoic,Cretaceous,Upper Cretaceous,,MZ_CT_U,5000,1.52,Structural,Anticline,,"2, 3, 660",
giant_oil_and_gas_fields_of_the_world_co_yxz.84,POINT (45.66667 32.46667),82,Ahdab,,E,MIDDLE EAST,Iraq,,32.46667,45.66667,B,Onshore,1979,Oil,Giant,516.667,224.668,500,0.1,-99999.99,91.368,217.272,365.365,2024,Mesopotamian Foredeep Basin,BS000000039,ZAGROS FOLDBELT,TYPE 1,,CARBONATE,limestone,Mesozoic,Cretaceous,Upper Cretaceous,,MZ_CT_U,8038,2.45,Structural,Anticline,,"3, 669, 670",
giant_oil_and_gas_fields_of_the_world_co_yxz.85,POINT (48.496725 31.216519),83,Ab-E-Teimur,Ab-Teymour,E,MIDDLE EAST,Iran,,31.216519,48.496725,A,Onshore,1968,Oil,Giant,2600,846.669,2600,-99999.99,-99999.99,214.534,746.852,1578.621,2024,Mesopotamian Foredeep Basin,BS000000039,ZAGROS FOLDBELT,TYPE 2,"Ilam ls, Sarvak ls",CARBONATE,limestone,Mesozoic,Cretaceous,Upper Cretaceous,,MZ_CT_U,10700,3.26,Structural,Anticline,,"2, 3, 38, 667, 1094",
giant_oil_and_gas_fields_of_the_world_co_yxz.86,POINT (54.433333 25.6),84,Fateh,,E,MIDDLE EAST,UAE,UAE - Dubai,25.6,54.433333,B,Offshore,1966,Oil,Giant,3900,1209.539,3900,-99999.99,-99999.99,280.152,1045.271,2303.193,2019,Rub Al Khali Basin,BS000000033,RUB AL KHALI,TYPE 1,,CARBONATE,,Mesozoic,Cretaceous,Upper Cretaceous,,MZ_CT_U,7906,2.41,Structural,Anticline,,"2, 60, 1145",
giant_oil_and_gas_fields_of_the_world_co_yxz.87,POINT (47.497981 30.394825),85,Tuba,,E,MIDDLE EAST,Iraq,,30.394825,47.497981,A,Onshore,1959,Oil,Giant,1588.333,418.513,1530,0.35,-99999.99,70.242,334.017,851.28,2024,Mesopotamian Foredeep Basin,BS000000038,WIDYAN - NORTH ARABIAN GULF,TYPE 1,,CARBONATE,dolomite,Mesozoic,Cretaceous,Upper Cretaceous,,MZ_CT_U,7585,2.31,Structural,Anticline,,"2, 3, 38, 692, 883, 1145",
giant_oil_and_gas_fields_of_the_world_co_yxz.88,POINT (47.624975 31.035483),86,Majnoon,,E,MIDDLE EAST,Iraq,,31.035483,47.624975,A,Onshore,1977,Oil,Supergiant,14833.333,13000,13000,11,-99999.99,13000,13000,13000,2024,Mesopotamian Foredeep Basin,BS000000038,WIDYAN - NORTH ARABIAN GULF,TYPE 2,,CARBONATE,limestone,Mesozoic,Cretaceous,Upper Cretaceous,,MZ_CT_U,7874,2.4,Structural,Anticline,,"2, 3,  685, 883, 1187",
giant_oil_and_gas_fields_of_the_world_co_yxz.89,POINT (46.01106 31.32323),87,Nasiryah,,E,MIDDLE EAST,Iraq,,31.32323,46.01106,B,Onshore,1978,Oil,Giant,2620,1107.938,2620,-99999.99,-99999.99,432.304,1064.254,1827.254,2024,Mesopotamian Foredeep Basin,BS000000038,WIDYAN - NORTH ARABIAN GULF,TYPE 1,,CARBONATE,limestone,Mesozoic,Cretaceous,Upper Cretaceous,,MZ_CT_U,6516,1.99,Structural,Anticline,,"3, 687, 883, 1145",
giant_oil_and_gas_fields_of_the_world_co_yxz.90,POINT (47.0985 30.563989),88,Ratawi,,E,MIDDLE EAST,Iraq,,30.563989,47.0985,A,Onshore,1950,Oil,Giant,3246.667,704.267,3130,0.7,-99999.99,76.952,499.838,1536.011,2024,Mesopotamian Foredeep Basin,BS000000038,WIDYAN - NORTH ARABIAN GULF,TYPE 1,,CARBONATE,limestone,Mesozoic,Cretaceous,Upper Cretaceous,,MZ_CT_U,7018,2.14,Structural,Anticline,,"3, 688, 1145",
giant_oil_and_gas_fields_of_the_world_co_yxz.91,POINT (48.00607 32.21974),89,Shakeh,,E,MIDDLE EAST,Iran,,32.21974,48.00607,B,Onshore,1978,Oil,Giant,550,232.582,550,-99999.99,-99999.99,90.751,223.412,383.584,2030,Zagros Fold Belt,BS000000039,ZAGROS FOLDBELT,TYPE 2,,CARBONATE,limestone,Mesozoic,Cretaceous,Upper Cretaceous,,MZ_CT_U,15420,4.7,Structural,Anticline,,"3, 38",
giant_oil_and_gas_fields_of_the_world_co_yxz.92,POINT (-93.481944 17.667169),90,Giraldas,,A,NORTH AMERICA,Mexico,Mexico - Tabasco,17.667169,-93.481944,A,Onshore,1977,Oil,Giant,681.767,280.467,435.2,1.479,-99999.99,104.961,267.505,468.937,5305,Villahermosa Uplift,BS000000264,SALINAS - SURESTE,TYPE 2,,CARBONATE,calcarenite,Mesozoic,Cretaceous,,,MZ_CT,13944,4.25,Structural,Anticline,,"3, 82, 434",
giant_oil_and_gas_fields_of_the_world_co_yxz.93,POINT (52.983333 24.566667),91,Bu Tini,,E,MIDDLE EAST,UAE,UAE - Abu Dhabi,24.566667,52.983333,B,Offshore,1980,Oil,Giant,1000,447.304,1000,-99999.99,-99999.99,189.532,435.352,717.028,2019,Rub Al Khali Basin,BS000000033,RUB AL KHALI,TYPE 1,,CARBONATE,,Mesozoic,Cretaceous,,,MZ_CT,11000,3.35,Structural,Anticline,,"2, 69, 786",
giant_oil_and_gas_fields_of_the_world_co_yxz.94,POINT (55 22.666667),92,Qusahwira,,E,MIDDLE EAST,UAE,UAE - Abu Dhabi,22.666667,55,B,Onshore,1976,Oil,Giant,700,280.236,700,-99999.99,-99999.99,100.553,265.305,474.851,2019,Rub Al Khali Basin,BS000000033,RUB AL KHALI,TYPE 1,,CARBONATE,,Mesozoic,Cretaceous,,,MZ_CT,7000,2.13,Structural,Anticline,,"2, 60, 831",
giant_oil_and_gas_fields_of_the_world_co_yxz.95,POINT (-97.266667 22.233333),93,Arenque,,A,NORTH AMERICA,Mexico,Mexico - Veracruz,22.233333,-97.266667,B,Onshore,1966,Oil,Giant,1000,310.138,1000,-99999.99,-99999.99,71.834,268.018,590.562,5301,Tampico-Misantla Basin,BS000000267,TAMPICO,TYPE 2,,CARBONATE,,Mesozoic,Cretaceous,,,MZ_CT,3700,1.13,Structural,Anticline,,"1, 435, 968",
giant_oil_and_gas_fields_of_the_world_co_yxz.96,POINT (-97.386816 20.492407),94,Poza Rica,,A,NORTH AMERICA,Mexico,Mexico - Veracruz,20.492407,-97.386816,A,Onshore,1930,Oil,Giant,2000,294.322,2000,-99999.99,-99999.99,11.854,153.977,717.134,5301,Tampico-Misantla Basin,BS000000267,TAMPICO,TYPE 2,,CARBONATE,,Mesozoic,Cretaceous,,,MZ_CT,7100,2.16,Structural,Anticline,,"1, 2, 338, 435, 965, 966",
giant_oil_and_gas_fields_of_the_world_co_yxz.97,POINT (72.887586 62.440189),95,Zapadno Surgutskoye,Surgut,D,EASTERN EUROPE AND FORMER USSR,Russia,,62.440189,72.887586,A,Onshore,1962,Oil,Giant,2000,564.324,2000,-99999.99,-99999.99,108.886,466.661,1117.425,1174,West Siberian Basin,BS000000306,CENTRAL SUB-BASIN - WEST SIBERIA,TYPE 1,,CARBONATE,,Mesozoic,Cretaceous,,,MZ_CT,7625,2.32,Structural,Anticline,,"1, 2, 467, 124, 914",
giant_oil_and_gas_fields_of_the_world_co_yxz.98,POINT (19.169653 28.163961),96,Samah,,F,AFRICA,Libya,,28.163961,19.169653,A,Onshore,1962,Oil,Giant,500,141.081,500,-99999.99,-99999.99,27.222,116.665,279.356,2043,Sirte Basin,BS000000014,SIRTE,TYPE 1,,CARBONATE,,Mesozoic,Cretaceous,,,MZ_CT,9000,2.74,Structural,Anticline,,"1, 2, 487",
giant_oil_and_gas_fields_of_the_world_co_yxz.99,POINT (49.535247 31.438422),97,Haft Kel,,E,MIDDLE EAST,Iran,,31.438422,49.535247,B,Onshore,1926,Oil,Giant,1946,266.437,1946,-99999.99,-99999.99,8.742,130.429,660.14,2030,Zagros Fold Belt,BS000000039,ZAGROS FOLDBELT,TYPE 2,,CARBONATE,,Mesozoic,Cretaceous,,,MZ_CT,3500,1.07,Structural,Anticline,,"1, 2, 652, 1094",
giant_oil_and_gas_fields_of_the_world_co_yxz.100,POINT (49.282667000000004 31.320773),98,Kupal,,E,MIDDLE EAST,Iran,,31.320773,49.282667,A,Onshore,1965,Oil,Giant,3213.333,972.942,2131.8,6.489,-99999.99,215.371,831.902,1871.553,2030,Zagros Fold Belt,BS000000039,ZAGROS FOLDBELT,TYPE 2,,CARBONATE,,Mesozoic,Cretaceous,,,MZ_CT,13425,4.09,Structural,Anticline,,"2, 3, 656, 657, 1094",
giant_oil_and_gas_fields_of_the_world_co_yxz.101,POINT (-92.95 17.76389),99,Agave,,A,NORTH AMERICA,Mexico,Mexico - Tabasco,17.76389,-92.95,B,Onshore,1976,Oil,Giant,1686.967,675.356,876.4,4.863,-99999.99,242.327,639.373,1144.367,5305,Villahermosa Uplift,BS000000264,SALINAS - SURESTE,TYPE 2,,CARBONATE,dolomitic limestone,Mesozoic,Cretaceous,,,MZ_CT,12041,3.67,Structural,Anticline,,"2, 3, 82",
giant_oil_and_gas_fields_of_the_world_co_yxz.102,POINT (48.91667 28.83333),100,Hout,,E,MIDDLE EAST,Divided Neutral Zone: Kuwait/Saudi Arabia,,28.83333,48.91667,B,Offshore,1963,Oil,Giant,832.078,240.309,541.03,1.746,-99999.99,48.552,200.994,471.381,2024,Mesopotamian Foredeep Basin,BS000000038,WIDYAN - NORTH ARABIAN GULF,TYPE 1,,CARBONATE,dolomitic limestone,Mesozoic,Cretaceous,,,MZ_CT,5500,1.68,Structural,Anticline,,"1, 3, 706, 950",
giant_oil_and_gas_fields_of_the_world_co_yxz.103,POINT (49.75 27.96667),101,Harqus,,E,MIDDLE EAST,Saudi Arabia,,27.96667,49.75,B,Offshore,1978,Oil,Giant,1000,422.877,1000,-99999.99,-99999.99,165.002,406.204,697.425,2024,Mesopotamian Foredeep Basin,BS000000038,WIDYAN - NORTH ARABIAN GULF,TYPE 1,,CARBONATE,limestone,Mesozoic,Cretaceous,,,MZ_CT,7000,2.13,Structural,Anticline,,"3, 64",
giant_oil_and_gas_fields_of_the_world_co_yxz.104,POINT (50.00319 28.16225),102,Hasbah,,E,MIDDLE EAST,Saudi Arabia,,28.16225,50.00319,B,Offshore,1976,Oil,Giant,1883.333,753.969,1800,0.5,-99999.99,270.534,713.797,1277.574,2024,Mesopotamian Foredeep Basin,BS000000038,WIDYAN - NORTH ARABIAN GULF,TYPE 1,,CARBONATE,limestone,Mesozoic,Cretaceous,,,MZ_CT,7000,2.13,Structural,Anticline,,"3, 799",
giant_oil_and_gas_fields_of_the_world_co_yxz.105,POINT (44.73917 43.52917),103,Malgobek Voznesenskoye,"Aliyurt, Alkhazovo, Gorskoye",D,EASTERN EUROPE AND FORMER USSR,Russia,,43.52917,44.73917,B,Onshore,1915,Oil,Giant,634.9,71.773,634.9,-99999.99,-99999.99,1.331,29.067,184.921,1109,Middle Caspian Basin,BS000000213,NORTH CAUCASUS,TYPE 1,,CARBONATE,limestone,Mesozoic,Cretaceous,,,MZ_CT,8530,2.6,Structural,Anticline,,"1, 2, 3, 38, 750",
giant_oil_and_gas_fields_of_the_world_co_yxz.106,POINT (48.29167 30.73333),104,Darquain,,E,MIDDLE EAST,Iran,,30.73333,48.29167,B,Onshore,1965,Oil,Giant,3169.533,959.68,2772.2,2.384,-99999.99,212.436,820.562,1846.043,2024,Mesopotamian Foredeep Basin,BS000000038,WIDYAN - NORTH ARABIAN GULF,TYPE 2,,CARBONATE,limestone,Mesozoic,Cretaceous,,,MZ_CT,13310,4.06,Structural,Anticline,,"3, 648, 1094",
giant_oil_and_gas_fields_of_the_world_co_yxz.107,POINT (48.283333 31.133333),105,Jufeyr,,E,MIDDLE EAST,Iran,,31.133333,48.283333,B,Onshore,1978,Oil,Giant,500,211.438,500,-99999.99,-99999.99,82.501,203.102,348.713,2024,Mesopotamian Foredeep Basin,BS000000039,ZAGROS FOLDBELT,TYPE 2,,CARBONATE,limestone,Mesozoic,Cretaceous,,,MZ_CT,14609,4.45,Structural,Anticline,,"3, 38, 64, 1094",
giant_oil_and_gas_fields_of_the_world_co_yxz.108,POINT (50.2535 29.19287),106,Kharg Island-Doroud,Formerly Darius,E,MIDDLE EAST,Iran,,29.19287,50.2535,B,Offshore,1961,Oil,Giant,4079.333,1124.814,2908.5,7.025,-99999.99,207.222,919.416,2247.804,2024,Mesopotamian Foredeep Basin,BS000000038,WIDYAN - NORTH ARABIAN GULF,TYPE 2,,CARBONATE,limestone,Mesozoic,Cretaceous,,,MZ_CT,10600,3.23,Structural,Anticline,,"1, 2, 3, 61, 179, 1094",
giant_oil_and_gas_fields_of_the_world_co_yxz.109,POINT (48.91667 28.53333),107,Khafji,,E,MIDDLE EAST,Divided Neutral Zone: Kuwait/Saudi Arabia,,28.53333,48.91667,B,Offshore,1959,Oil,Supergiant,8814.913,2322.656,8646,1.013,-99999.99,389.826,1853.721,4724.421,2024,Mesopotamian Foredeep Basin,BS000000038,WIDYAN - NORTH ARABIAN GULF,TYPE 1,,CARBONATE,limestone,Mesozoic,Cretaceous,,,MZ_CT,3900,1.19,Structural,Anticline,,"3, 715, 716, 717, 950",
giant_oil_and_gas_fields_of_the_world_co_yxz.110,POINT (11.229812 -5.575248),108,Moho Marine,,F,AFRICA,Congo (Brazzaville),,-5.575248,11.229812,B,Offshore,1995,Oil,Giant,600,430.155,600,-99999.99,-99999.99,321.575,439.255,529.636,7203,West-central Coastal,BS000000049,LOWER CONGO,TYPE 1,,CARBONATE,,Mesozoic,Cretaceous,Lower Cretaceous,,MZ_CT_L,8202,2.5,Structural,Anticline,,"3, 40",
giant_oil_and_gas_fields_of_the_world_co_yxz.111,POINT (55.136931 22.714233),109,Mender,,E,MIDDLE EAST,UAE,UAE - Abu Dhabi,22.714233,55.136931,A,Onshore,1975,Oil,Giant,532.833,207.654,516,0.101,-99999.99,71.415,195.07,356.477,2019,Rub Al Khali Basin,BS000000033,RUB AL KHALI,TYPE 1,,CARBONATE,coral limestone,Mesozoic,Cretaceous,Lower Cretaceous,,MZ_CT_L,3290,1,Structural,Anticline,,"3, 38, 784",
giant_oil_and_gas_fields_of_the_world_co_yxz.112,POINT (54.16389 22.77778),110,Zarrarah,,E,MIDDLE EAST,UAE,UAE - Abu Dhabi,22.77778,54.16389,B,Onshore,1970,Oil,Giant,1500,513.435,1200,1.8,-99999.99,142.17,461.795,936.342,2019,Rub Al Khali Basin,BS000000033,RUB AL KHALI,TYPE 1,,CARBONATE,coral limestone,Mesozoic,Cretaceous,Lower Cretaceous,,MZ_CT_L,4600,1.4,Structural,Anticline,,"3, 38, 831, 860",
giant_oil_and_gas_fields_of_the_world_co_yxz.113,POINT (52.4 25.5),111,Idd El Shargi North Dome,,E,MIDDLE EAST,Qatar,,25.5,52.4,B,Offshore,1960,Oil,Giant,1138.392,306.813,610,3.17,-99999.99,53.956,247.837,618.645,2019,Rub Al Khali Basin,BS000000033,RUB AL KHALI,TYPE 1,,CARBONATE,limestone,Mesozoic,Cretaceous,Lower Cretaceous,,MZ_CT_L,4480,1.37,Structural,Anticline,,"1, 2, 3, 733, 736",
giant_oil_and_gas_fields_of_the_world_co_yxz.114,POINT (53.304486 23.550869),112,Murban Bu Hasa,Bu Hasa,E,MIDDLE EAST,UAE,UAE - Abu Dhabi,23.550869,53.304486,A,Onshore,1962,Oil,Supergiant,13048.603,3681.82,11660,8.332,-99999.99,710.406,3044.635,7290.42,2019,Rub Al Khali Basin,BS000000033,RUB AL KHALI,TYPE 1,,CARBONATE,rudist limestone,Mesozoic,Cretaceous,Lower Cretaceous,,MZ_CT_L,7500,2.29,Structural,Anticline,,"1, 2, 3, 38, 831, 925, 1145",
giant_oil_and_gas_fields_of_the_world_co_yxz.115,POINT (54.22164 23.298),113,Asab,"With Shah, replaces Abu Jidu",E,MIDDLE EAST,UAE,UAE - Abu Dhabi,23.298,54.22164,A,Onshore,1965,Oil,Supergiant,11091.193,3358.223,8517,15.445,-99999.99,743.379,2871.405,6459.884,2019,Rub Al Khali Basin,BS000000033,RUB AL KHALI,TYPE 1,,CARBONATE,limestone,Mesozoic,Cretaceous,Lower Cretaceous,,MZ_CT_L,7700,2.35,Structural,Anticline,,"1, 2, 3, 38, 625, 627, 1145",
giant_oil_and_gas_fields_of_the_world_co_yxz.116,POINT (54.34722 23.66528),114,Sahil,,E,MIDDLE EAST,UAE,UAE - Abu Dhabi,23.66528,54.34722,A,Onshore,1967,Oil,Giant,1363.623,433.296,1200,0.982,-99999.99,104.983,378.362,816.544,2019,Rub Al Khali Basin,BS000000033,RUB AL KHALI,TYPE 1,,CARBONATE,limestone,Mesozoic,Cretaceous,Lower Cretaceous,,MZ_CT_L,8535,2.6,Structural,Anticline,,"2, 3, 38, 861, 862, 1145",
giant_oil_and_gas_fields_of_the_world_co_yxz.117,POINT (53.641014 23.846031),115,Bab,Murban Bab,E,MIDDLE EAST,UAE,UAE - Abu Dhabi,23.846031,53.641014,A,Onshore,1954,Oil,Supergiant,16508.368,3897.011,11630,29.27,-99999.99,516.266,2919.369,8255.399,2019,Rub Al Khali Basin,BS000000033,RUB AL KHALI,TYPE 1,,CARBONATE,shelly limestone,Mesozoic,Cretaceous,Lower Cretaceous,,MZ_CT_L,8035,2.45,Structural,Anticline,,"1, 2, 3, 38, 831, 1145",
giant_oil_and_gas_fields_of_the_world_co_yxz.118,POINT (53.70139 24.85556),116,Zakum,,E,MIDDLE EAST,UAE,UAE - Abu Dhabi,24.85556,53.70139,B,Offshore,1964,Oil,Supergiant,23740.015,7019.346,21680,12.36,-99999.99,1484.625,5936.751,13636.664,2019,Rub Al Khali Basin,BS000000033,RUB AL KHALI,TYPE 1,,CARBONATE,limestone,Mesozoic,Cretaceous,Lower Cretaceous,,MZ_CT_L,8000,2.44,Structural,Anticline,,"1, 2, 3, 38, 854, 855, 856, 1145",
giant_oil_and_gas_fields_of_the_world_co_yxz.119,POINT (46.07639 31.74111),117,Gharraf,,E,MIDDLE EAST,Iraq,,31.74111,46.07639,B,Onshore,1979,Oil,Giant,1130,491.372,1130,-99999.99,-99999.99,199.831,475.194,799.089,2024,Mesopotamian Foredeep Basin,BS000000038,WIDYAN - NORTH ARABIAN GULF,TYPE 1,,CARBONATE,limestone,Mesozoic,Cretaceous,Lower Cretaceous,,MZ_CT_L,10007,3.05,Structural,Anticline,,"3, 647, 676, 673, 677, 883, 1145",
giant_oil_and_gas_fields_of_the_world_co_yxz.120,POINT (47.430764 29.199653),118,Minagish,,E,MIDDLE EAST,Kuwait,,29.199653,47.430764,A,Onshore,1959,Oil,Giant,4232.05,1115.11,4000,1.392,-99999.99,187.156,889.974,2268.2,2024,Mesopotamian Foredeep Basin,BS000000038,WIDYAN - NORTH ARABIAN GULF,TYPE 1,,CARBONATE,oolitic limestone,Mesozoic,Cretaceous,Lower Cretaceous,,MZ_CT_L,9148,2.79,Structural,Anticline,,"1, 2, 3, 706, 707, 1145",
giant_oil_and_gas_fields_of_the_world_co_yxz.121,POINT (47.722461 28.857108),119,Umm Gudair,,E,MIDDLE EAST,Kuwait,,28.857108,47.722461,A,Onshore,1962,Oil,Giant,2962.162,835.81,2879.75,0.494,-99999.99,161.269,691.162,1654.997,2024,Mesopotamian Foredeep Basin,BS000000038,WIDYAN - NORTH ARABIAN GULF,TYPE 1,,CARBONATE,oolitic limestone,Mesozoic,Cretaceous,Lower Cretaceous,,MZ_CT_L,8050,2.45,Structural,Anticline,,"1, 2, 3, 38, 688, 711",
giant_oil_and_gas_fields_of_the_world_co_yxz.122,POINT (47.7175 28.808889),120,Umm Gudair South,,E,MIDDLE EAST,Kuwait,,28.808889,47.7175,A,Onshore,1966,Oil,Giant,800,248.111,800,-99999.99,-99999.99,57.467,214.415,472.45,2024,Mesopotamian Foredeep Basin,BS000000038,WIDYAN - NORTH ARABIAN GULF,TYPE 1,,CARBONATE,oolitic limestone,Mesozoic,Cretaceous,Lower Cretaceous,,MZ_CT_L,8050,2.45,Structural,Anticline,,"1145, 1147",
giant_oil_and_gas_fields_of_the_world_co_yxz.123,POINT (47.910081 28.591319),121,Wafra,,E,MIDDLE EAST,Kuwait,,28.591319,47.910081,A,Onshore,1953,Oil,Giant,3600,831.826,3400,1.2,-99999.99,105.045,614.949,1775.485,2024,Mesopotamian Foredeep Basin,BS000000038,WIDYAN - NORTH ARABIAN GULF,TYPE 1,,CARBONATE,oolitic limestone,Mesozoic,Cretaceous,Lower Cretaceous,,MZ_CT_L,6150,1.88,Structural,Anticline,,"1, 2, 3, 38, 718, 719, 1122, 1145",
giant_oil_and_gas_fields_of_the_world_co_yxz.124,POINT (49.03 27.72333),122,Manifa,,E,MIDDLE EAST,Saudi Arabia,,27.72333,49.03,B,Offshore,1957,Oil,Supergiant,23911.167,6025.764,23118,4.759,-99999.99,920.577,4691.703,12465.011,2024,Mesopotamian Foredeep Basin,BS000000038,WIDYAN - NORTH ARABIAN GULF,TYPE 1,,CARBONATE,calcarenite,Mesozoic,Cretaceous,Lower Cretaceous,,MZ_CT_L,7692,2.35,Structural,Anticline,,"1, 2, 3, 811, 784, 806, 992, 1145",
giant_oil_and_gas_fields_of_the_world_co_yxz.125,POINT (50.78361 25.42111),123,Dukhan,,E,MIDDLE EAST,Qatar,,25.42111,50.78361,A,Onshore,1940,Oil,Supergiant,7781.808,1381.52,6280,9.011,-99999.99,92.235,847.206,3205.117,2021,Greater Ghawar Uplift,BS000000038,WIDYAN - NORTH ARABIAN GULF,TYPE 1,,CARBONATE,limestone,Mesozoic,Jurassic,Upper Jurassic,,MZ_JR_U,5660,1.73,Structural,Anticline,,"1, 2, 3, 733, 734, 735, 1145",
giant_oil_and_gas_fields_of_the_world_co_yxz.126,POINT (50.41667 23.41667),124,Jawb,,E,MIDDLE EAST,Saudi Arabia,,23.41667,50.41667,B,Onshore,1979,Oil,Giant,800,347.874,750,0.3,-99999.99,141.473,336.42,565.727,2021,Greater Ghawar Uplift,BS000000038,WIDYAN - NORTH ARABIAN GULF,TYPE 1,,CARBONATE,calcarenite,Mesozoic,Jurassic,Upper Jurassic,,MZ_JR_U,6000,1.83,Structural,Anticline,,"3, 785, 803",
giant_oil_and_gas_fields_of_the_world_co_yxz.127,POINT (50.21667 27.4),125,Jurayd,,E,MIDDLE EAST,Saudi Arabia,,27.4,50.21667,B,Offshore,1968,Oil,Giant,700,227.949,700,-99999.99,-99999.99,57.759,201.075,425.013,2024,Mesopotamian Foredeep Basin,BS000000038,WIDYAN - NORTH ARABIAN GULF,TYPE 1,,CARBONATE,calcarenite,Mesozoic,Jurassic,Upper Jurassic,,MZ_JR_U,9000,2.74,Structural,Anticline,,"3, 678",
giant_oil_and_gas_fields_of_the_world_co_yxz.128,POINT (50.46667 23.69167),126,Lughfah,,E,MIDDLE EAST,Saudi Arabia,,23.69167,50.46667,B,Onshore,1979,Oil,Giant,1050,456.584,1000,0.3,-99999.99,185.684,441.552,742.517,2021,Greater Ghawar Uplift,BS000000038,WIDYAN - NORTH ARABIAN GULF,TYPE 1,,CARBONATE,calcarenite,Mesozoic,Jurassic,Upper Jurassic,,MZ_JR_U,6000,1.83,Structural,Anticline,,"3, 808",
giant_oil_and_gas_fields_of_the_world_co_yxz.129,POINT (53.133333 25.516667),127,Sassan,,E,MIDDLE EAST,Iran,,25.516667,53.133333,B,Offshore,1967,Oil,Giant,1900,603.732,1900,-99999.99,-99999.99,146.278,527.189,1137.729,2019,Rub Al Khali Basin,BS000000033,RUB AL KHALI,TYPE 1,,CARBONATE,,Mesozoic,Jurassic,Upper Jurassic,,MZ_JR_U,8250,2.52,Structural,Anticline,,"1, 2, 104",
giant_oil_and_gas_fields_of_the_world_co_yxz.130,POINT (53.48333 25.33056),128,Nasr,,E,MIDDLE EAST,UAE,UAE - Abu Dhabi,25.33056,53.48333,B,Offshore,1971,Oil,Giant,2113.333,741.948,1280,5,-99999.99,214.674,673.556,1337.613,2019,Rub Al Khali Basin,BS000000033,RUB AL KHALI,TYPE 1,,CARBONATE,dolomite,Mesozoic,Jurassic,Upper Jurassic,,MZ_JR_U,9400,2.87,Structural,Anticline,,"3, 859",
giant_oil_and_gas_fields_of_the_world_co_yxz.131,POINT (52.92961 24.5756),129,Ghasha,,E,MIDDLE EAST,UAE,UAE - Abu Dhabi,24.5756,52.92961,B,Offshore,1975,Oil,Giant,2900,1130.178,1990,5.04,70,388.684,1061.689,1940.161,2019,Rub Al Khali Basin,BS000000033,RUB AL KHALI,TYPE 1,,CARBONATE,limestone,Mesozoic,Jurassic,Upper Jurassic,,MZ_JR_U,10300,3.14,Structural,Anticline,,"3, 786, 627",
giant_oil_and_gas_fields_of_the_world_co_yxz.132,POINT (53.19943 24.77233),130,Saath Al Raaz Boot,,E,MIDDLE EAST,UAE,UAE - Abu Dhabi,24.77233,53.19943,B,Offshore,1969,Oil,Giant,1881.667,628.13,900,5.5,65,166.403,559.567,1158.421,2019,Rub Al Khali Basin,BS000000033,RUB AL KHALI,TYPE 1,,CARBONATE,limestone,Mesozoic,Jurassic,Upper Jurassic,,MZ_JR_U,9250,2.82,Structural,Anticline,,"2, 3, 786",
giant_oil_and_gas_fields_of_the_world_co_yxz.133,POINT (49.685 25.945),131,Abqaiq,,E,MIDDLE EAST,Saudi Arabia,,25.945,49.685,A,Onshore,1940,Oil,Supergiant,21024.333,3732.491,18658,14.198,-99999.99,249.195,2288.921,8659.357,2021,Greater Ghawar Uplift,BS000000038,WIDYAN - NORTH ARABIAN GULF,TYPE 1,,CARBONATE,calcarenite,Mesozoic,Jurassic,Upper Jurassic,,MZ_JR_U,5592,1.7,Structural,Anticline,,"1, 2, 3, 780, 781, 782, 1142, 1145",
giant_oil_and_gas_fields_of_the_world_co_yxz.134,POINT (50.48444 26.79083),132,Abu Sa'fah,,E,MIDDLE EAST,Saudi Arabia,,26.79083,50.48444,B,Offshore,1963,Oil,Supergiant,9746,2814.7,8569,7.062,-99999.99,568.677,2354.214,5521.209,2024,Mesopotamian Foredeep Basin,BS000000038,WIDYAN - NORTH ARABIAN GULF,TYPE 1,,CARBONATE,calcarenite,Mesozoic,Jurassic,Upper Jurassic,,MZ_JR_U,6300,1.92,Structural,Anticline,,"1, 2, 3, 787, 1145",
giant_oil_and_gas_fields_of_the_world_co_yxz.135,POINT (49.61667 26.98333),133,Berri,,E,MIDDLE EAST,Saudi Arabia,,26.98333,49.61667,B,Onshore,1964,Oil,Supergiant,20517,6066.379,18478,12.234,-99999.99,1283.068,5130.76,11785.31,2024,Mesopotamian Foredeep Basin,BS000000038,WIDYAN - NORTH ARABIAN GULF,TYPE 1,,CARBONATE,calcarenite,Mesozoic,Jurassic,Upper Jurassic,,MZ_JR_U,7650,2.33,Structural,Anticline,,"1, 2, 3, 791, 792, 1145",
giant_oil_and_gas_fields_of_the_world_co_yxz.136,POINT (47.84847 27.71108),134,Habari,,E,MIDDLE EAST,Saudi Arabia,,27.71108,47.84847,A,Onshore,1976,Oil,Giant,700,280.236,700,-99999.99,-99999.99,100.553,265.305,474.851,2024,Mesopotamian Foredeep Basin,BS000000038,WIDYAN - NORTH ARABIAN GULF,TYPE 1,,CARBONATE,calcarenite,Mesozoic,Jurassic,Upper Jurassic,,MZ_JR_U,9800,2.99,Structural,Anticline,,"3, 66",
giant_oil_and_gas_fields_of_the_world_co_yxz.137,POINT (49.469061 24.561269),135,Harmaliyah,,E,MIDDLE EAST,Saudi Arabia,,24.561269,49.469061,A,Onshore,1971,Oil,Giant,2205.5,774.306,1812,2.361,-99999.99,224.037,702.932,1395.949,2021,Greater Ghawar Uplift,BS000000038,WIDYAN - NORTH ARABIAN GULF,TYPE 1,,CARBONATE,calcarenite,Mesozoic,Jurassic,Upper Jurassic,,MZ_JR_U,7450,2.27,Structural,Anticline,,"2, 3, 797, 798",
giant_oil_and_gas_fields_of_the_world_co_yxz.138,POINT (48.61525 27.06497),136,Jaladi,,E,MIDDLE EAST,Saudi Arabia,,27.06497,48.61525,B,Onshore,1978,Oil,Giant,1966.667,831.658,1800,1,-99999.99,324.503,798.868,1371.603,2024,Mesopotamian Foredeep Basin,BS000000038,WIDYAN - NORTH ARABIAN GULF,TYPE 1,,CARBONATE,calcarenite,Mesozoic,Jurassic,Upper Jurassic,,MZ_JR_U,8600,2.62,Structural,Anticline,,"2, 3, 803",
giant_oil_and_gas_fields_of_the_world_co_yxz.139,POINT (50.05 27.71667),137,Karan,,E,MIDDLE EAST,Saudi Arabia,,27.71667,50.05,B,Offshore,1967,Oil,Giant,750,238.315,750,-99999.99,-99999.99,57.741,208.101,449.103,2024,Mesopotamian Foredeep Basin,BS000000038,WIDYAN - NORTH ARABIAN GULF,TYPE 1,,CARBONATE,calcarenite,Mesozoic,Jurassic,Upper Jurassic,,MZ_JR_U,6400,1.95,Structural,Anticline,,"3, 806",
giant_oil_and_gas_fields_of_the_world_co_yxz.140,POINT (48.066225 25.061431),138,Khurais,,E,MIDDLE EAST,Saudi Arabia,,25.061431,48.066225,A,Onshore,1957,Oil,Supergiant,17506.667,4411.789,17000,3.04,-99999.99,674.005,3435.051,9126.313,2023,Widyan Basin-Int. Platform,BS000000038,WIDYAN - NORTH ARABIAN GULF,TYPE 1,,CARBONATE,calcarenite,Mesozoic,Jurassic,Upper Jurassic,,MZ_JR_U,4760,1.45,Structural,Anticline,,"1, 2, 3, 796,1145",
giant_oil_and_gas_fields_of_the_world_co_yxz.141,POINT (49.847911 26.54725),139,Qatif,,E,MIDDLE EAST,Saudi Arabia,,26.54725,49.847911,A,Onshore,1945,Oil,Supergiant,9957.167,1950.455,7205.5,16.51,-99999.99,166.892,1289.098,4395.374,2024,Mesopotamian Foredeep Basin,BS000000038,WIDYAN - NORTH ARABIAN GULF,TYPE 1,,CARBONATE,calcarenite,Mesozoic,Jurassic,Upper Jurassic,,MZ_JR_U,7100,2.16,Structural,Anticline,,"1, 2, 3, 815, 816",
giant_oil_and_gas_fields_of_the_world_co_yxz.142,POINT (48.788736 24.163481),140,Sahba,,E,MIDDLE EAST,Saudi Arabia,,24.163481,48.788736,A,Onshore,1984,Oil,Giant,583.333,293.232,500,0.5,-99999.99,145.876,291.71,442.11,2021,Greater Ghawar Uplift,BS000000038,WIDYAN - NORTH ARABIAN GULF,TYPE 1,,CARBONATE,calcarenite,Mesozoic,Jurassic,Upper Jurassic,,MZ_JR_U,6000,1.83,Structural,Anticline,,"3, 783",
giant_oil_and_gas_fields_of_the_world_co_yxz.143,POINT (49.26667 26.81667),141,Samin,,E,MIDDLE EAST,Saudi Arabia,,26.81667,49.26667,B,Onshore,1979,Oil,Giant,750,326.132,750,0,-99999.99,132.631,315.394,530.369,2024,Mesopotamian Foredeep Basin,BS000000038,WIDYAN - NORTH ARABIAN GULF,TYPE 1,,CARBONATE,calcarenite,Mesozoic,Jurassic,Upper Jurassic,,MZ_JR_U,8250,2.52,Structural,Anticline,,"3, 665",
giant_oil_and_gas_fields_of_the_world_co_yxz.144,POINT (47.184514 27.696275),142,Wari'ah,,E,MIDDLE EAST,Saudi Arabia,,27.696275,47.184514,A,Onshore,1978,Oil,Giant,816.667,345.349,750,0.4,-99999.99,134.751,331.733,569.564,2023,Widyan Basin-Int. Platform,BS000000038,WIDYAN - NORTH ARABIAN GULF,TYPE 1,,CARBONATE,calcarenite,Mesozoic,Jurassic,Upper Jurassic,,MZ_JR_U,8200,2.5,Structural,Anticline,,"3, 38, 805, 673",
giant_oil_and_gas_fields_of_the_world_co_yxz.145,POINT (47.83333 26.83333),143,Dhib,,E,MIDDLE EAST,Saudi Arabia,,26.83333,47.83333,B,Onshore,1979,Oil,Giant,1566.667,681.253,1500,0.4,-99999.99,277.052,658.823,1107.882,2024,Mesopotamian Foredeep Basin,BS000000038,WIDYAN - NORTH ARABIAN GULF,TYPE 1,,CARBONATE,,Mesozoic,Jurassic,Upper Jurassic,,MZ_JR_U,9750,2.97,Structural,Anticline,,"3, 663",
giant_oil_and_gas_fields_of_the_world_co_yxz.146,POINT (47.2396 28.266242),144,Dibdibah,,E,MIDDLE EAST,Saudi Arabia,,28.266242,47.2396,A,Onshore,1975,Oil,Giant,733.333,285.792,700,0.2,-99999.99,98.288,268.473,490.615,2023,Widyan Basin-Int. Platform,BS000000038,WIDYAN - NORTH ARABIAN GULF,TYPE 1,,CARBONATE,calcarenite,Mesozoic,Jurassic,Upper Jurassic,,MZ_JR_U,10760,3.28,Structural,Anticline,,"3, 671",
giant_oil_and_gas_fields_of_the_world_co_yxz.147,POINT (46.748975 28.230731),145,Hamd,,E,MIDDLE EAST,Saudi Arabia,,28.230731,46.748975,A,Onshore,1982,Oil,Giant,766.667,363.268,700,0.4,-99999.99,166.91,357.721,565.173,2023,Widyan Basin-Int. Platform,BS000000038,WIDYAN - NORTH ARABIAN GULF,TYPE 1,,CARBONATE,calcarenite,Mesozoic,Jurassic,Upper Jurassic,,MZ_JR_U,9900,3.02,Structural,Anticline,,"3, 795",
giant_oil_and_gas_fields_of_the_world_co_yxz.148,POINT (47.06667 28.48333),146,Rimthan,,E,MIDDLE EAST,Saudi Arabia,,28.48333,47.06667,A,Onshore,1974,Oil,Giant,791.667,300.437,700,0.55,-99999.99,99.002,279.958,522.351,2023,Widyan Basin-Int. Platform,BS000000038,WIDYAN - NORTH ARABIAN GULF,TYPE 1,,CARBONATE,calcarenite,Mesozoic,Jurassic,Upper Jurassic,,MZ_JR_U,10700,3.26,Structural,Anticline,,"2, 671, 817",
giant_oil_and_gas_fields_of_the_world_co_yxz.149,POINT (47.01819 27.8785),147,Suban,,E,MIDDLE EAST,Saudi Arabia,,27.8785,47.01819,A,Onshore,1976,Oil,Giant,1000,400.337,900,0.6,-99999.99,143.646,379.007,678.358,2023,Widyan Basin-Int. Platform,BS000000038,WIDYAN - NORTH ARABIAN GULF,TYPE 1,,CARBONATE,calcarenite,Mesozoic,Jurassic,Upper Jurassic,,MZ_JR_U,9900,3.02,Structural,Anticline,,"3, 68",
giant_oil_and_gas_fields_of_the_world_co_yxz.150,POINT (48.970808 27.315778),148,Abu Hadriya,,E,MIDDLE EAST,Saudi Arabia,,27.315778,48.970808,A,Onshore,1940,Oil,Giant,1851.833,328.76,1800,0.311,-99999.99,21.949,201.609,762.72,2024,Mesopotamian Foredeep Basin,BS000000038,WIDYAN - NORTH ARABIAN GULF,TYPE 1,,CARBONATE,calcarenite,Mesozoic,Jurassic,Upper Jurassic,,MZ_JR_U,9585,2.92,Structural,Anticline,,"1, 2, 3, 784, 785, 1145",
giant_oil_and_gas_fields_of_the_world_co_yxz.151,POINT (46.714219 27.967958),149,Sadawi,,E,MIDDLE EAST,Saudi Arabia,,27.967958,46.714219,A,Onshore,1976,Oil,Giant,783.333,313.598,700,0.5,-99999.99,112.523,296.889,531.38,2023,Widyan Basin-Int. Platform,BS000000038,WIDYAN - NORTH ARABIAN GULF,TYPE 1,,CARBONATE,calcarenite,Mesozoic,Jurassic,Upper Jurassic,,MZ_JR_U,9900,3.02,Structural,Anticline,,"3, 663",
giant_oil_and_gas_fields_of_the_world_co_yxz.152,POINT (52.41667 22.83333),150,Maghrib,,E,MIDDLE EAST,Saudi Arabia,,22.83333,52.41667,B,Onshore,1983,Oil,Giant,683.333,333.431,600,0.5,-99999.99,159.442,330.079,510.772,2019,Rub Al Khali Basin,BS000000033,RUB AL KHALI,TYPE 1,,CARBONATE,limestone,Mesozoic,Jurassic,Upper Jurassic,,MZ_JR_U,6000,1.83,Structural,Anticline,,"3, 795",
giant_oil_and_gas_fields_of_the_world_co_yxz.153,POINT (48.72625 27.72522),151,Sharar,,E,MIDDLE EAST,Saudi Arabia,,27.72522,48.72625,B,Onshore,1976,Oil,Giant,2116.667,847.381,2000,0.7,-99999.99,304.052,802.232,1435.858,2024,Mesopotamian Foredeep Basin,BS000000038,WIDYAN - NORTH ARABIAN GULF,TYPE 1,,CARBONATE,limestone,Mesozoic,Jurassic,Middle Jurassic,,MZ_JR_M,8000,2.44,Structural,Anticline,,"3, 38, 66",
giant_oil_and_gas_fields_of_the_world_co_yxz.154,POINT (72.666292 61.299678),152,Mamontovo,,D,EASTERN EUROPE AND FORMER USSR,Russia,,61.299678,72.666292,A,Onshore,1965,Oil,Giant,1750,529.87,1750,-99999.99,-99999.99,117.293,453.058,1019.259,1174,West Siberian Basin,BS000000306,CENTRAL SUB-BASIN - WEST SIBERIA,TYPE 1,,CARBONATE,,Mesozoic,Jurassic,Middle Jurassic,,MZ_JR_M,9500,2.9,Structural,Anticline,,"1, 2, 747, 914",
giant_oil_and_gas_fields_of_the_world_co_yxz.155,POINT (0.966667 57.733333),153,Forties,,C,WESTERN EUROPE,United Kingdom,,57.733333,0.966667,B,Offshore,1970,Oil,Giant,2000,684.58,2000,-99999.99,-99999.99,189.559,615.726,1248.455,4025,North Sea Graben,BS000000488,CENTRAL GRABEN,TYPE 1,,CARBONATE,,Mesozoic,Jurassic,Lower Jurassic,,MZ_JR_L,7500,2.29,Structural,Anticline,,"2, 38, 63, 134",
giant_oil_and_gas_fields_of_the_world_co_yxz.156,POINT (48.111267 24.390164),154,Mazalij,,E,MIDDLE EAST,Saudi Arabia,,24.390164,48.111267,A,Onshore,1971,Oil,Giant,675,236.979,675,-99999.99,-99999.99,68.567,215.134,427.234,2023,Widyan Basin-Int. Platform,BS000000038,WIDYAN - NORTH ARABIAN GULF,TYPE 1,,CARBONATE,,Mesozoic,Jurassic,Lower Jurassic,,MZ_JR_L,-99999.99,-99999.99,Structural,Anticline,,"2, 813, 814",
giant_oil_and_gas_fields_of_the_world_co_yxz.157,POINT (48.75 27.5),155,Jana,,E,MIDDLE EAST,Saudi Arabia,,27.5,48.75,B,Onshore,1967,Oil,Giant,500,158.877,500,-99999.99,-99999.99,38.494,138.734,299.402,2024,Mesopotamian Foredeep Basin,BS000000038,WIDYAN - NORTH ARABIAN GULF,TYPE 1,,CARBONATE,limestone,Mesozoic,Jurassic,Lower Jurassic,,MZ_JR_L,5000,1.52,Structural,Anticline,,"2, 804",
giant_oil_and_gas_fields_of_the_world_co_yxz.158,POINT (47.873256 29.236747),156,Khashman,,E,MIDDLE EAST,Kuwait,,29.236747,47.873256,A,Onshore,1963,Oil,Giant,561.667,162.213,520,0.25,-99999.99,32.773,135.674,318.19,2024,Mesopotamian Foredeep Basin,BS000000038,WIDYAN - NORTH ARABIAN GULF,TYPE 1,,CARBONATE,limestone,Mesozoic,Jurassic,Lower Jurassic,,MZ_JR_L,11100,3.38,Structural,Anticline,,"3, 705",
giant_oil_and_gas_fields_of_the_world_co_yxz.159,POINT (57.366206 66.165228),157,Usinskoye,,D,EASTERN EUROPE AND FORMER USSR,Russia,,66.165228,57.366206,A,Onshore,1962,Oil,Giant,3100,874.702,3100,-99999.99,-99999.99,168.773,723.324,1732.009,1008,Timan-Pechora Basin,BS000000772,TIMAN - PECHORA,TYPE 2,,CARBONATE,,Paleozoic,Permian,Guadalupian,,PZ_PR_GUA,-99999.99,-99999.99,Structural,Anticline,,"2, 120, 121",
giant_oil_and_gas_fields_of_the_world_co_yxz.160,POINT (-102.804806 32.997464),158,Wasson,,A,NORTH AMERICA,United States,USA - Texas,32.997464,-102.804806,A,Onshore,1936,Oil,Giant,2263.291,372.253,2101.624,0.97,-99999.99,20.332,214.514,881.914,5044,Permian Basin,BS000000609,MIDLAND - PERMIAN,TYPE 2,,CARBONATE,dolomite,Paleozoic,Permian,Guadalupian,,PZ_PR_GUA,6200,1.89,Structural,Anticline,,"1, 2, 6, 38, 396",
giant_oil_and_gas_fields_of_the_world_co_yxz.161,POINT (-102.469803 31.749811),159,Goldsmith,Andector,A,NORTH AMERICA,United States,USA - Texas,31.749811,-102.469803,A,Onshore,1934,Oil,Giant,866,137.192,866,-99999.99,-99999.99,6.773,76.584,328.22,5044,Permian Basin,BS000000609,MIDLAND - PERMIAN,TYPE 2,,CARBONATE,dolomite,Paleozoic,Permian,Cisuralian,,PZ_PR_CIS,5500,1.68,Structural,Anticline,,"1, 2, 410",
giant_oil_and_gas_fields_of_the_world_co_yxz.162,POINT (-102.666667 32.5),160,Seminole,Texas,A,NORTH AMERICA,United States,USA - Texas,32.5,-102.666667,A,Onshore,1936,Oil,Giant,718.829,118.229,718.829,-99999.99,-99999.99,6.457,68.13,280.099,5044,Permian Basin,BS000000609,MIDLAND - PERMIAN,TYPE 2,,CARBONATE,dolomite,Paleozoic,Permian,Cisuralian,,PZ_PR_CIS,5100,1.55,Structural,Anticline,,"2, 6, 404, 405",
giant_oil_and_gas_fields_of_the_world_co_yxz.163,POINT (-102.419742 31.744061),161,Cowden South,Foster; Johnson,A,NORTH AMERICA,United States,USA - Texas,31.744061,-102.419742,A,Onshore,1932,Oil,Giant,589.333,89.965,589.333,-99999.99,-99999.99,4.012,48.628,217.255,5044,Permian Basin,BS000000609,MIDLAND - PERMIAN,TYPE 2,,CARBONATE,dolomite,Paleozoic,Permian,Cisuralian,,PZ_PR_CIS,4700,1.43,Structural,Anticline,,"1, 2, 6, 38, 399",
giant_oil_and_gas_fields_of_the_world_co_yxz.164,POINT (-102.308894 31.38505),162,McElroy,Dune,A,NORTH AMERICA,United States,USA - Texas,31.38505,-102.308894,A,Onshore,1926,Oil,Giant,578.49,79.204,578.49,-99999.99,-99999.99,2.599,38.773,196.241,5044,Permian Basin,BS000000609,MIDLAND - PERMIAN,TYPE 2,,CARBONATE,dolomite,Paleozoic,Permian,Cisuralian,,PZ_PR_CIS,2900,0.88,Structural,Anticline,,"2, 6, 38, 414",
giant_oil_and_gas_fields_of_the_world_co_yxz.165,POINT (-102.666667 32.166667),163,Fullerton,,A,NORTH AMERICA,United States,USA - Texas,32.166667,-102.666667,A,Onshore,1942,Oil,Giant,565,104.289,315,1.5,-99999.99,7.692,65.926,239.249,5044,Permian Basin,BS000000609,MIDLAND - PERMIAN,TYPE 2,,CARBONATE,dolomite,Paleozoic,Permian,Cisuralian,,PZ_PR_CIS,8000,2.44,Structural,Anticline,,"2, 406, 407",
giant_oil_and_gas_fields_of_the_world_co_yxz.166,POINT (-103.259725 32.885819),164,Blinebry-Drinkard,,A,NORTH AMERICA,United States,USA - New Mexico,32.885819,-103.259725,A,Onshore,1935,Oil,Giant,506,81.674,256,1.5,-99999.99,4.241,46.325,194.454,5044,Permian Basin,BS000000609,MIDLAND - PERMIAN,TYPE 2,,CARBONATE,dolomite,Paleozoic,Permian,Cisuralian,,PZ_PR_CIS,6000,1.83,Structural,Anticline,,"2, 38, 838",
giant_oil_and_gas_fields_of_the_world_co_yxz.167,POINT (-102.515284 32.04055),165,Cowden North,,A,NORTH AMERICA,United States,USA - Texas,32.04055,-102.515284,B,Onshore,1930,Oil,Giant,500,73.58,500,-99999.99,-99999.99,2.964,38.494,179.283,5044,Permian Basin,BS000000609,MIDLAND - PERMIAN,TYPE 2,,CARBONATE,dolomite,Paleozoic,Permian,Cisuralian,,PZ_PR_CIS,4400,1.34,Structural,Anticline,,"2, 38, 408, 409",
giant_oil_and_gas_fields_of_the_world_co_yxz.168,POINT (-102.328042 31.449794),166,Sand Hills,,A,NORTH AMERICA,United States,USA - Texas,31.449794,-102.328042,A,Onshore,1931,Oil,Giant,511,76.586,246,1.59,-99999.99,3.246,40.728,185.785,5044,Permian Basin,BS000000609,MIDLAND - PERMIAN,TYPE 2,,CARBONATE,dolomite,Paleozoic,Ordovician,Upper Ordovician,,PZ_OR_U,4000,1.22,Structural,Anticline,,"2, 413",
giant_oil_and_gas_fields_of_the_world_co_yxz.169,POINT (-88.666667 38),167,Illinois,Old Fields,A,NORTH AMERICA,United States,USA - Illinois,38,-88.666667,B,Onshore,1938,Oil,Giant,675,115.315,675,-99999.99,-99999.99,6.965,68.567,270.414,5064,Illinois Basin,BS000000548,ILLINOIS,TYPE 1,,CARBONATE,carbonates,Paleozoic,Carboniferous,Mississippian,,PZ_CB_MS,-99999.99,-99999.99,Structural,Anticline,Anticlines,"1, 374, 375, 376",
giant_oil_and_gas_fields_of_the_world_co_yxz.170,POINT (-84.8 40.5),168,Lima-Indiana,,A,NORTH AMERICA,United States,USA - Ohio-Indiana,40.5,-84.8,B,Onshore,1876,Oil,Giant,514,31.12,514,-99999.99,-99999.99,0.072,6.092,87.195,5066,Cincinnati Arch,BS000000606,MICHIGAN,TYPE 2,,CARBONATE,carbonates,Paleozoic,Ordovician,Middle Ordovician,,PZ_OR_M,1092,0.33,Structural,Anticline,Anticlines,"1, 31",
giant_oil_and_gas_fields_of_the_world_co_yxz.171,POINT (47.75 33.3),169,Sarkhan,,E,MIDDLE EAST,Iran,,33.3,47.75,B,Onshore,1973,Gas,Giant,1157,427.705,-99999.99,6.042,150,135.001,395.217,752.895,2030,Zagros Fold Belt,BS000000039,ZAGROS FOLDBELT,TYPE 2,,CARBONATE,limestone,Cenozoic,Neogene,Miocene,,CZ_NG_MIO,7766,2.37,Structural,Anticline,Asymmetrical anticline,"2, 3, 664",
giant_oil_and_gas_fields_of_the_world_co_yxz.172,POINT (63.583333 39.45),170,Kandymskoye,Khadzhiy,D,EASTERN EUROPE AND FORMER USSR,Uzbekistan,,39.45,63.583333,B,Onshore,1966,Gas,Giant,903.54,280.222,-99999.99,5.235,31,64.905,242.165,533.597,1154,Amu-Darya Basin,BS000000066,AMU-DAR'YA,TYPE 2,,CARBONATE,coral limestone,Mesozoic,Jurassic,Upper Jurassic,,MZ_JR_U,6627,2.02,Structural,Anticline,Asymmetrical anticline,"1, 2, 3, 38",
giant_oil_and_gas_fields_of_the_world_co_yxz.173,POINT (49.823246 30.720673),171,Agha Jari,,E,MIDDLE EAST,Iran,,30.720673,49.823246,B,Onshore,1936,Oil,Supergiant,19025.468,3129.202,17377,9.891,-99999.99,170.909,1803.228,7413.469,2030,Zagros Fold Belt,BS000000039,ZAGROS FOLDBELT,TYPE 2,,CARBONATE,limestone,Cenozoic,Neogene,Miocene,,CZ_NG_MIO,3700,1.13,Structural,Anticline,Asymmetrical anticline,"1, 2, 3, 643, 1094",
giant_oil_and_gas_fields_of_the_world_co_yxz.174,POINT (48.85666 30.921926),172,Mansuri,,E,MIDDLE EAST,Iran,,30.921926,48.85666,A,Onshore,1963,Oil,Giant,3532.935,1020.332,3413,0.72,-99999.99,206.146,853.405,2001.444,2024,Mesopotamian Foredeep Basin,BS000000039,ZAGROS FOLDBELT,TYPE 2,,CARBONATE,,Cenozoic,Paleogene,Oligocene,,CZ_PG_OLI,7100,2.16,Structural,Anticline,Asymmetrical anticline,"1, 2, 3, 646, 1094",
giant_oil_and_gas_fields_of_the_world_co_yxz.175,POINT (45.78611 34.38028),173,Emam Hassan,,E,MIDDLE EAST,Iran,,34.38028,45.78611,B,Onshore,1963,Oil,Giant,600,173.283,550,0.3,-99999.99,35.01,144.934,339.906,2030,Zagros Fold Belt,BS000000039,ZAGROS FOLDBELT,TYPE 2,,CARBONATE,limestone,Mesozoic,Cretaceous,Upper Cretaceous,,MZ_CT_U,2687,0.82,Structural,Anticline,Asymmetrical anticline,"3, 650",
giant_oil_and_gas_fields_of_the_world_co_yxz.176,POINT (53.326742 57.258617),174,Chutyr-Kiyengop,Kiengopsko-Chutyr,D,EASTERN EUROPE AND FORMER USSR,Russia,,57.258617,53.326742,A,Onshore,1962,Oil,Giant,542,152.932,542,-99999.99,-99999.99,29.508,126.465,302.822,1015,Volga-Ural Region,BS000000801,VOLGA - URALS,TYPE 2,,CARBONATE,limestone,Paleozoic,Carboniferous,Mississippian,,PZ_CB_MS,3944,1.2,Structural,Anticline,Asymmetrical anticline,"3, 38, 123",
giant_oil_and_gas_fields_of_the_world_co_yxz.177,POINT (-97.734958 21.359236),175,Cerro Azul,"Amatlan, Naranjos",A,NORTH AMERICA,Mexico,Mexico - Veracruz,21.359236,-97.734958,A,Onshore,1909,Oil,Giant,1250,127.746,1250,-99999.99,-99999.99,1.729,46.486,335.023,5301,Tampico-Misantla Basin,BS000000267,TAMPICO,TYPE 2,,CARBONATE,,Mesozoic,Cretaceous,,,MZ_CT,2100,0.64,Stratigraphic,Reef,Atoll reef,"1, 2, 435",
giant_oil_and_gas_fields_of_the_world_co_yxz.178,POINT (53.26 51.31583),176,Karachaganak,,D,EASTERN EUROPE AND FORMER USSR,Kazakhstan,,51.31583,53.26,A,Onshore,1979,Gas,Supergiant,13199.367,5739.64,-99999.99,49.189,5001,2334.199,5550.671,9334.049,1016,North Caspian Basin,BS000000074,PRECASPIAN,TYPE 2,,CARBONATE,coral limestone,Paleozoic,Carboniferous,Mississippian,,PZ_CB_MS,14698,4.48,Stratigraphic,,Bioherm,"3, 38, 111, 696, 698, 947, 955, 1033",
giant_oil_and_gas_fields_of_the_world_co_yxz.179,POINT (107.82 31.533333),177,Puguangsi,Puguang,G,ASIA AND OCEANIA,China,,31.533333,107.82,B,Onshore,2003,Gas,Giant,1100,1057.916,-99999.99,6.6,-99999.99,1026.351,1062.538,1084.859,3142,Sichuan Basin,BS000000244,SICHUAN,TYPE 3,,CARBONATE,reef and shoal dolomites,Mesozoic,Triassic,Lower Triassic,,MZ_TR_L,14500,4.42,Combination,,Combination structural-stratigraphic,"954, 997, 1103, 1153",
giant_oil_and_gas_fields_of_the_world_co_yxz.180,POINT (54.283333 25.65),178,Sirri D,,E,MIDDLE EAST,Iran,,25.65,54.283333,B,Offshore,1978,Oil,Giant,750,317.158,750,-99999.99,-99999.99,123.751,304.653,523.069,2019,Rub Al Khali Basin,BS000000033,RUB AL KHALI,TYPE 1,,CARBONATE,,Mesozoic,Cretaceous,Upper Cretaceous,,MZ_CT_U,7815,2.38,Structural,Diapir,,"3, 38, 60",
giant_oil_and_gas_fields_of_the_world_co_yxz.181,POINT (69.75 27.933333),179,Mari,,G,ASIA AND OCEANIA,Pakistan,,27.933333,69.75,B,Onshore,1957,Gas,Giant,1361.613,343.135,-99999.99,8.17,-99999.99,52.422,267.167,709.816,8042,Indus,BS000000022,INDUS,TYPE 2,,CARBONATE,cherty limestone,Cenozoic,Paleogene,Eocene,,CZ_PG_EOC,2000,0.61,Structural,Dome,,"1, 2, 3, 38, 724, 725",
giant_oil_and_gas_fields_of_the_world_co_yxz.182,POINT (69.366667 28.083333),180,Qadirpur,,G,ASIA AND OCEANIA,Pakistan,,28.083333,69.366667,A,Onshore,1990,Gas,Giant,669.113,405.542,-99999.99,3.98,6,253.599,411.93,551.098,8042,Indus,BS000000022,INDUS,TYPE 2,,CARBONATE,limestone,Cenozoic,Paleogene,Eocene,,CZ_PG_EOC,4035,1.23,Structural,Dome,,"3, 4, 726, 727, 875",
giant_oil_and_gas_fields_of_the_world_co_yxz.183,POINT (51.358333 27.345833),181,G 3,,E,MIDDLE EAST,Iran,,27.345833,51.358333,B,Offshore,1993,Gas,Giant,3250,2175.616,-99999.99,15,750,1516.424,2219.995,2790.428,2022,Qatar Arch,BS000000038,WIDYAN - NORTH ARABIAN GULF,TYPE 1,,CARBONATE,limestone,Mesozoic,Triassic,Upper Triassic,,MZ_TR_U,11483,3.5,Structural,Dome,,"3, 4, 875",
giant_oil_and_gas_fields_of_the_world_co_yxz.184,POINT (51.25 27.966667),182,Pars North,Pars,E,MIDDLE EAST,Iran,,27.966667,51.25,B,Offshore,1966,Gas,Supergiant,7833.333,2429.416,-99999.99,47,-99999.99,562.698,2099.477,4626.072,2024,Mesopotamian Foredeep Basin,BS000000038,WIDYAN - NORTH ARABIAN GULF,TYPE 1,,CARBONATE,limestone,Mesozoic,Triassic,Upper Triassic,,MZ_TR_U,8660,2.64,Structural,Dome,,"2, 3, 71",
giant_oil_and_gas_fields_of_the_world_co_yxz.185,POINT (3.19849 56.53574),183,Ekofisk,,C,WESTERN EUROPE,Norway,,56.53574,3.19849,B,Offshore,1969,Oil,Giant,4451.667,1486.037,3800,3.91,-99999.99,393.678,1323.829,2740.605,4025,North Sea Graben,BS000000488,CENTRAL GRABEN,TYPE 1,,CARBONATE,chalk,Cenozoic,Paleogene,Paleocene,,CZ_PG_PAL,9475,2.89,Structural,Dome,,"1, 2, 3, 38, 63, 513, 520",
giant_oil_and_gas_fields_of_the_world_co_yxz.186,POINT (54.15202 24.60888),184,Umm Al-Dalkh,,E,MIDDLE EAST,UAE,UAE - Abu Dhabi,24.60888,54.15202,B,Offshore,1969,Oil,Giant,800.16,267.106,767.07,0.199,-99999.99,70.761,237.95,492.607,2019,Rub Al Khali Basin,BS000000033,RUB AL KHALI,TYPE 1,,CARBONATE,limestone,Mesozoic,Cretaceous,,,MZ_CT,8000,2.44,Structural,Dome,,"2, 3, 38, 104, 863",
giant_oil_and_gas_fields_of_the_world_co_yxz.187,POINT (56.047547 22.164447),185,Yibal,Shuaiba,E,MIDDLE EAST,Oman,,22.164447,56.047547,A,Onshore,1962,Oil,Giant,2081.493,587.318,1297.24,4.506,33,113.323,485.676,1162.957,2016,Fahud Salt Basin,BS000000033,RUB AL KHALI,TYPE 1,,CARBONATE,chalk,Mesozoic,Cretaceous,Lower Cretaceous,,MZ_CT_L,4085,1.25,Structural,Dome,,"2, 3, 38, 624",
giant_oil_and_gas_fields_of_the_world_co_yxz.188,POINT (50.12722 26.31778),186,Dammam,,E,MIDDLE EAST,Saudi Arabia,,26.31778,50.12722,B,Onshore,1938,Oil,Giant,1306.177,223.144,912.01,2.365,-99999.99,13.478,132.683,523.271,2021,Greater Ghawar Uplift,BS000000038,WIDYAN - NORTH ARABIAN GULF,TYPE 1,,CARBONATE,calcarenite,Mesozoic,Jurassic,Upper Jurassic,,MZ_JR_U,4540,1.38,Structural,Dome,,"1, 2, 3, 793, 794",
giant_oil_and_gas_fields_of_the_world_co_yxz.189,POINT (49.225272 27.215483),187,Khursaniyah,,E,MIDDLE EAST,Saudi Arabia,,27.215483,49.225272,A,Onshore,1956,Oil,Giant,4996,1231.653,4300,4.176,-99999.99,179.467,946.899,2568.591,2024,Mesopotamian Foredeep Basin,BS000000038,WIDYAN - NORTH ARABIAN GULF,TYPE 1,,CARBONATE,calcarenite,Mesozoic,Jurassic,Upper Jurassic,,MZ_JR_U,6170,1.88,Structural,Dome,,"1, 2, 3, 784, 806, 807, 1145",
giant_oil_and_gas_fields_of_the_world_co_yxz.190,POINT (53.21922 25.19978),188,Umm Shaif,,E,MIDDLE EAST,UAE,UAE - Abu Dhabi,25.19978,53.21922,B,Offshore,1958,Oil,Supergiant,11488.893,2960.209,6380,30.653,-99999.99,474.061,2333.76,6072.806,2019,Rub Al Khali Basin,BS000000033,RUB AL KHALI,TYPE 1,,CARBONATE,limestone,Mesozoic,Jurassic,Upper Jurassic,,MZ_JR_U,8000,2.44,Structural,Dome,,"1, 2, 3, 38, 857, 858, 1145",
giant_oil_and_gas_fields_of_the_world_co_yxz.191,POINT (49.233333 25.933333),189,Ghawar,,E,MIDDLE EAST,Saudi Arabia,,25.933333,49.233333,A,Onshore,1948,Oil,Megagiant,106041.167,22072.485,75000,186.247,-99999.99,2188.086,15232.44,48796.929,2021,Greater Ghawar Uplift,BS000000038,WIDYAN - NORTH ARABIAN GULF,TYPE 1,Arab D,CARBONATE,"limestone, mudstone to skeletal-oolitic grainstone",Mesozoic,Jurassic,Upper Jurassic,,MZ_JR_U,5550,1.69,Structural,Draping Structure,Drape fold over a basement horst,"1, 2, 3, 443, 444, 1132, 1177",Reservoir lithology improves upward from mudstone to skeletal-oolitic grainstone (successive upward-shoaling cycles)
giant_oil_and_gas_fields_of_the_world_co_yxz.192,POINT (-93.3748 17.965978),190,Paredon,,A,NORTH AMERICA,Mexico,Mexico - Tabasco,17.965978,-93.3748,A,Onshore,1977,Oil,Giant,500,205.692,500,-99999.99,-99999.99,76.977,196.185,343.913,5305,Villahermosa Uplift,BS000000264,SALINAS - SURESTE,TYPE 2,,CARBONATE,fractured dolomites,Mesozoic,Cretaceous,Lower Cretaceous,,MZ_CT_L,18586,5.67,Structural,Anticline,Elongated anticline,"3, 38, 82",
giant_oil_and_gas_fields_of_the_world_co_yxz.193,POINT (109 5.333333),191,Natuna,,G,ASIA AND OCEANIA,Indonesia,,5.333333,109,B,Offshore,1973,Gas,Supergiant,7666.667,7666.667,-99999.99,46,-99999.99,7666.667,7666.667,7666.667,3702,Greater Sarawak Basin,BS000000126,SARAWAK - EAST NATUNA,TYPE 1,,CARBONATE,limestone,Cenozoic,Neogene,Miocene,Tortonian,CZ_NG_MIO_TORT,8694,2.65,Structural,Fault,,"3, 316, 1070, 1071",71 percent carbon dioxide content
giant_oil_and_gas_fields_of_the_world_co_yxz.194,POINT (-92.866667 19.31667),192,Abkatun-Pol-Chuc,,A,NORTH AMERICA,Mexico,Mexico - Bay Of Campeche,19.31667,-92.866667,B,Offshore,1979,Oil,Supergiant,6858.244,2982.253,5417.338,7.299,37.5,1212.824,2884.067,4849.868,5304,Saline-Comalcalco Basin,BS000000264,SALINAS - SURESTE,TYPE 2,,CARBONATE,dolomite,Cenozoic,Paleogene,Paleocene,,CZ_PG_PAL,10197,3.11,Structural,Fault,,"2, 3, 335, 338, 437",
giant_oil_and_gas_fields_of_the_world_co_yxz.195,POINT (-92.95 17.8535),193,Sitio Grande,,A,NORTH AMERICA,Mexico,Mexico - Tabasco,17.8535,-92.95,A,Onshore,1972,Oil,Giant,765,275.553,765,-99999.99,-99999.99,83.286,252.415,490.957,5305,Villahermosa Uplift,BS000000264,SALINAS - SURESTE,TYPE 2,,CARBONATE,dolomite,Mesozoic,Cretaceous,,,MZ_CT,15000,4.57,Structural,Fault Block,Fault blocks,"2, 338",
giant_oil_and_gas_fields_of_the_world_co_yxz.196,POINT (9.566667 45.5),194,Malossa,,C,WESTERN EUROPE,Italy,,45.5,9.566667,B,Onshore,1973,Gas,Giant,618.333,228.577,-99999.99,1.76,325,72.149,211.215,402.368,4060,Po Basin,BS000000192,PO,TYPE 2,,CARBONATE,dolomite,Mesozoic,Triassic,Upper Triassic,,MZ_TR_U,18000,5.49,Structural,Anticline,Faulted anticline,"2, 18",
giant_oil_and_gas_fields_of_the_world_co_yxz.197,POINT (-103 31),195,Gomez,,A,NORTH AMERICA,United States,USA - Texas,31,-103,A,Onshore,1963,Gas,Giant,500,144.403,-99999.99,3,-99999.99,29.175,120.778,283.255,5044,Permian Basin,BS000000793,VAL VERDE,TYPE 2,,CARBONATE,,Paleozoic,Ordovician,Upper Ordovician,,PZ_OR_U,19871,6.06,Structural,Anticline,Faulted anticline,"1, 2, 6, 415",
giant_oil_and_gas_fields_of_the_world_co_yxz.198,POINT (71.4 19.566667),196,Bombay High,,G,ASIA AND OCEANIA,India,,19.566667,71.4,B,Offshore,1974,Oil,Giant,1431.667,543.317,1300,0.79,-99999.99,179.037,506.282,944.631,8043,Bombay,BS000000028,MUMBAI - SAURASHTRA,TYPE 2,,CARBONATE,limestone,Cenozoic,Neogene,Miocene,,CZ_NG_MIO,4500,1.37,Structural,Anticline,Faulted anticline,"2. 292, 293",
giant_oil_and_gas_fields_of_the_world_co_yxz.199,POINT (56.450433 22.3156),197,Fahud,,E,MIDDLE EAST,Oman,,22.3156,56.450433,A,Onshore,1964,Oil,Giant,900,266.108,900,-99999.99,-99999.99,56.283,225.066,516.975,2016,Fahud Salt Basin,BS000000031,OMAN MOUNTAINS FOLDBELT,TYPE 1,,CARBONATE,,Mesozoic,Cretaceous,,,MZ_CT,2000,0.61,Structural,Anticline,Faulted anticline,"1, 2, 38, 622",
giant_oil_and_gas_fields_of_the_world_co_yxz.200,POINT (56.702114 22.445683),198,Natih,,E,MIDDLE EAST,Oman,,22.445683,56.702114,A,Onshore,1960,Oil,Giant,1000,269.514,1000,-99999.99,-99999.99,47.397,217.708,543.438,2016,Fahud Salt Basin,BS000000031,OMAN MOUNTAINS FOLDBELT,TYPE 1,,CARBONATE,,Mesozoic,Cretaceous,,,MZ_CT,7500,2.29,Structural,Anticline,Faulted anticline,"1, 2, 38, 634",
giant_oil_and_gas_fields_of_the_world_co_yxz.201,POINT (-98.185404 22.065),199,Panuco,Ebano Panuco,A,NORTH AMERICA,Mexico,Mexico - Veracruz,22.065,-98.185404,B,Onshore,1901,Oil,Giant,971,87.024,971,-99999.99,-99999.99,0.771,27.368,232.932,5301,Tampico-Misantla Basin,BS000000267,TAMPICO,TYPE 2,,CARBONATE,,Mesozoic,Cretaceous,,,MZ_CT,1450,0.44,Structural,Anticline,Faulted anticline,"1, 2, 435",
giant_oil_and_gas_fields_of_the_world_co_yxz.202,POINT (-72 10.666667),200,La Paz,,B,CENTRAL AND SOUTH AMERICA,Venezuela,,10.666667,-72,A,Onshore,1925,Oil,Giant,900,121.048,900,-99999.99,-99999.99,3.772,58.268,301.104,6099,Maracaibo Basin,BS000000136,MARACAIBO,TYPE 2,,CARBONATE,,Mesozoic,Cretaceous,,,MZ_CT,4250,1.3,Structural,Anticline,Faulted anticline,"1, 2, 38, 576",
giant_oil_and_gas_fields_of_the_world_co_yxz.203,POINT (19.069914 29.074731),201,Raguba,,F,AFRICA,Libya,,29.074731,19.069914,A,Onshore,1961,Oil,Giant,1000,275.735,1000,-99999.99,-99999.99,50.798,225.384,551.022,2043,Sirte Basin,BS000000014,SIRTE,TYPE 1,,CARBONATE,,Mesozoic,Cretaceous,Upper Cretaceous,,MZ_CT_U,5400,1.65,Structural,Anticline,Faulted anticline,"1, 2, 38, 484",
giant_oil_and_gas_fields_of_the_world_co_yxz.204,POINT (14.633333 36.533333),202,Vega East,,C,WESTERN EUROPE,Italy,,36.533333,14.633333,B,Offshore,1982,Oil,Giant,625,296.142,625,-99999.99,-99999.99,136.068,291.62,460.739,4066,Sicily,BS000000011,PELAGIAN,TYPE 1,,CARBONATE,,Mesozoic,Jurassic,Lower Jurassic,,MZ_JR_L,7800,2.38,Structural,Anticline,Faulted anticline,"2, 492",
giant_oil_and_gas_fields_of_the_world_co_yxz.205,POINT (-103 31.916667),203,Keystone,,A,NORTH AMERICA,United States,USA - Texas,31.916667,-103,A,Onshore,1930,Oil,Giant,564,82.999,314,1.5,-99999.99,3.343,43.421,202.232,5044,Permian Basin,BS000000609,MIDLAND - PERMIAN,TYPE 2,,CARBONATE,dolomite,Paleozoic,Permian,Cisuralian,,PZ_PR_CIS,9500,2.9,Structural,Anticline,Faulted anticline,"2, 38, 836, 837",
giant_oil_and_gas_fields_of_the_world_co_yxz.206,POINT (-92.333333 19.65),204,Ixtoc,,A,NORTH AMERICA,Mexico,Mexico - Bay Of Campeche,19.65,-92.333333,B,Offshore,1979,Oil,Giant,800,347.874,800,-99999.99,-99999.99,141.473,336.42,565.727,5305,Villahermosa Uplift,BS000000264,SALINAS - SURESTE,TYPE 2,,CARBONATE,dolomite,Cenozoic,Paleogene,Paleocene,,CZ_PG_PAL,10100,3.08,Structural,Salt,Faulted salt dome,"2, 339, 340, 437",
giant_oil_and_gas_fields_of_the_world_co_yxz.207,POINT (-93.75 17.6579),205,Iris,,A,NORTH AMERICA,Mexico,Mexico - Veracruz,17.6579,-93.75,A,Onshore,1977,Oil,Giant,1666.667,685.639,1500,1,-99999.99,256.59,653.95,1146.376,5304,Saline-Comalcalco Basin,BS000000264,SALINAS - SURESTE,TYPE 2,,CARBONATE,dolomite,Mesozoic,Cretaceous,,,MZ_CT,14800,4.51,Structural,Salt,Faulted salt dome,"2, 82, 434",
giant_oil_and_gas_fields_of_the_world_co_yxz.208,POINT (-93.133333 17.966667),206,Samaria,Bermudez Complex,A,NORTH AMERICA,Mexico,Mexico - Tabasco,17.966667,-93.133333,B,Onshore,1958,Oil,Supergiant,9916.667,2555.112,7000,17.5,-99999.99,409.187,2014.391,5241.758,5305,Villahermosa Uplift,BS000000264,SALINAS - SURESTE,TYPE 2,,CARBONATE,dolomite,Mesozoic,Cretaceous,,,MZ_CT,14200,4.33,Structural,Salt,Faulted salt dome,"2, 336, 338",
giant_oil_and_gas_fields_of_the_world_co_yxz.209,POINT (-93.183286 17.894122),207,Cactus,,A,NORTH AMERICA,Mexico,Mexico - Chiapas,17.894122,-93.183286,A,Onshore,1972,Oil,Giant,2165,779.832,1700,2.79,-99999.99,235.704,714.352,1389.439,5305,Villahermosa Uplift,BS000000264,SALINAS - SURESTE,TYPE 2,,CARBONATE,limestone,Mesozoic,Cretaceous,,,MZ_CT,13500,4.12,Structural,Salt,Faulted salt dome,"2, 82, 434, 435",
giant_oil_and_gas_fields_of_the_world_co_yxz.210,POINT (-93.490112 17.870089),208,Jujo,,A,NORTH AMERICA,Mexico,Mexico - Tabasco,17.870089,-93.490112,A,Onshore,1980,Oil,Giant,500,223.652,500,-99999.99,-99999.99,94.766,217.676,358.514,5305,Villahermosa Uplift,BS000000264,SALINAS - SURESTE,TYPE 2,,CARBONATE,fractured dolomite,Mesozoic,Jurassic,Upper Jurassic,,MZ_JR_U,19462,5.93,Structural,Salt,Faulted salt dome,"3, 38, 82, 1034",
giant_oil_and_gas_fields_of_the_world_co_yxz.211,POINT (44.05112 34.83822),209,Hamrin,,E,MIDDLE EAST,Iraq,,34.83822,44.05112,B,Onshore,1961,Oil,Giant,713.333,196.691,580,0.8,-99999.99,36.236,160.774,393.063,2030,Zagros Fold Belt,BS000000039,ZAGROS FOLDBELT,TYPE 1,,CARBONATE,limestone,Cenozoic,Paleogene,Oligocene,,CZ_PG_OLI,1398,0.43,Structural,Anticline,Fold,"2, 3, 647, 680",
giant_oil_and_gas_fields_of_the_world_co_yxz.212,POINT (116 38.75),210,Renqiu,,G,ASIA AND OCEANIA,China,,38.75,116,B,Onshore,1975,Oil,Giant,2000,779.433,2000,-99999.99,-99999.99,268.058,732.199,1338.042,3127,Bohaiwan Basin,BS000000243,NORTH CHINA,TYPE 3,,CARBONATE,dolomite,Neo-Proterozoic,Ediacaran,,,PC_P_NP_ED,10000,3.05,Structural,Anticline,Fractured anticline,"2, 246, 247, 248",
giant_oil_and_gas_fields_of_the_world_co_yxz.213,POINT (-101.947778 30.887778),211,Yates,,A,NORTH AMERICA,United States,USA - Texas,30.887778,-101.947778,A,Onshore,1926,Oil,Giant,1954.851,267.649,1954.851,-99999.99,-99999.99,8.782,131.023,663.142,5044,Permian Basin,BS000000609,MIDLAND - PERMIAN,TYPE 2,,CARBONATE,dolomite,Paleozoic,Permian,Cisuralian,,PZ_PR_CIS,2046,0.62,Structural,Dome,Gentle dome,"1, 2, 6, 38, 416, 417",
giant_oil_and_gas_fields_of_the_world_co_yxz.214,POINT (51.945578 43.021489),212,Rakushechnoye,,D,EASTERN EUROPE AND FORMER USSR,Kazakhstan,,43.021489,51.945578,A,Onshore,2001,Gas,Giant,716.667,638.51,-99999.99,4.3,-99999.99,582.14,645.91,687.479,1109,Middle Caspian Basin,BS000000072,MANGYSHLAK - USTYURT,TYPE 1,,CARBONATE,carbonates,Mesozoic,Triassic,Upper Triassic,,MZ_TR_U,-99999.99,-99999.99,Stratigraphic,,Karstic carbonates,"5, 23, 108",
giant_oil_and_gas_fields_of_the_world_co_yxz.215,POINT (94.783333 15.133333),213,Yadana,,G,ASIA AND OCEANIA,Myanmar,,15.133333,94.783333,B,Offshore,1990,Gas,Giant,833.333,505.074,-99999.99,5,-99999.99,315.839,513.03,686.354,8048,Irrawaddy,BS000000111,CENTRAL BURMA TERTIARY,TYPE 3,,CARBONATE,,Cenozoic,Paleogene,Oligocene,,CZ_PG_OLI,-99999.99,-99999.99,Stratigraphic,,marginal patch reefs and shoals,"25, 26, 38",
giant_oil_and_gas_fields_of_the_world_co_yxz.981,POINT (43 36.5),979,Shaikan 1,,E,MIDDLE EAST,Iraq,,36.5,43,D,Onshore,2009,Oil,Giant,1500,1500,1500,-99999.99,-99999.99,1500,1500,1500,2030,Zagros Fold Belt,BS000000035,SOUTHEAST TURKEY FOLDBELT,TYPE 1,,UNKNOWN,,Unknown,,,,,-99999.99,-99999.99,Unknown,,,1193,
giant_oil_and_gas_fields_of_the_world_co_yxz.216,POINT (111.883333 5.316667),214,Jintan,,G,ASIA AND OCEANIA,Malaysia,,5.316667,111.883333,B,Offshore,1985,Gas,Giant,575,297.889,-99999.99,3,75,154.111,297.68,441.876,3702,Greater Sarawak Basin,BS000000126,SARAWAK - EAST NATUNA,TYPE 1,,CARBONATE,coral limestone,Cenozoic,Neogene,Miocene,,CZ_NG_MIO,5256,1.6,Stratigraphic,,Organic build-up,"3, 4, 37, 38, 1168",
giant_oil_and_gas_fields_of_the_world_co_yxz.217,POINT (118.883333 11.566667),215,Malampaya,,G,ASIA AND OCEANIA,Philippines,,11.566667,118.883333,B,Offshore,1992,Gas,Giant,781.333,505.767,75,3.5,123,340.155,515.533,661.614,3605,Palawan Shelf,BS000000641,NORTH PALAWAN,TYPE 3,,CARBONATE,limestone,Cenozoic,Neogene,Miocene,,CZ_NG_MIO,9823,2.99,Stratigraphic,,Organic build-up,"3, 4, 38, 729, 730, 875",
giant_oil_and_gas_fields_of_the_world_co_yxz.218,POINT (47.186869 46.873872),216,Astrakhan',,D,EASTERN EUROPE AND FORMER USSR,Russia,,46.873872,47.186869,A,Onshore,1976,Gas,Supergiant,19628.997,7858.219,-99999.99,89.639,4689,2819.636,7439.532,13315.488,1016,North Caspian Basin,BS000000074,PRECASPIAN,TYPE 1,,CARBONATE,foraminiferal limestone,Paleozoic,Carboniferous,Mississippian,,PZ_CB_MS,12631,3.85,Stratigraphic,,Organic build-up,"3, 38, 111, 566, 955",
giant_oil_and_gas_fields_of_the_world_co_yxz.219,POINT (53.37667 46.06194),217,Tengiz,,D,EASTERN EUROPE AND FORMER USSR,Kazakhstan,,46.06194,53.37667,A,Onshore,1980,Oil,Supergiant,7811.913,3494.3,5829.08,11.897,-99999.99,1480.604,3400.933,5601.363,1016,North Caspian Basin,BS000000074,PRECASPIAN,TYPE 1,,CARBONATE,coral limestone,Paleozoic,Carboniferous,Mississippian,,PZ_CB_MS,12687,3.87,Stratigraphic,,Organic build-up,"3, 38, 111, 563, 947, 955. 1119",
giant_oil_and_gas_fields_of_the_world_co_yxz.220,POINT (57.44167 48.3175),218,Zhanazhol,,D,EASTERN EUROPE AND FORMER USSR,Kazakhstan,,48.3175,57.44167,A,Onshore,1978,Oil,Giant,1722.767,728.518,771.9,4.434,212,284.259,699.795,1201.501,1016,North Caspian Basin,BS000000074,PRECASPIAN,TYPE 2,,CARBONATE,coral limestone,Paleozoic,Carboniferous,Mississippian,,PZ_CB_MS,11670,3.56,Stratigraphic,Pinch-out,Permeability pinch-out,"3, 38, , 111, 697, 701, 947",
giant_oil_and_gas_fields_of_the_world_co_yxz.221,POINT (64.641092 38.798558),219,Kokdumalak,,D,EASTERN EUROPE AND FORMER USSR,Uzbekistan,,38.798558,64.641092,A,Onshore,1981,Gas,Giant,500,230.145,250,1.5,-99999.99,101.566,225.351,363.518,1154,Amu-Darya Basin,BS000000066,AMU-DAR'YA,TYPE 2,,CARBONATE,pinnacle reef,Mesozoic,Jurassic,Upper Jurassic,,MZ_JR_U,10157,3.1,Stratigraphic,Reef,Pinnacle reef,"3, 38, 135",
giant_oil_and_gas_fields_of_the_world_co_yxz.222,POINT (96.534386 60.42755),220,Yurubcheno-Tokhomo,,D,EASTERN EUROPE AND FORMER USSR,Russia,,60.42755,96.534386,A,Onshore,1985,Gas,Giant,1022.067,529.5,427.4,3.208,60,273.933,529.129,785.438,1207,Baykit Arch,BS000000398,BAYKIT HIGH,TYPE 1,,CARBONATE,dolomite,Meso-Proterozoic,Ectasian,,,PC_P_MP_EC,7290,2.22,Stratigraphic,Pinch-out,Porosity pinch-out,"3, 776",
giant_oil_and_gas_fields_of_the_world_co_yxz.223,POINT (110.973372 59.827072),221,Talakan,,D,EASTERN EUROPE AND FORMER USSR,Russia,,59.827072,110.973372,A,Onshore,1984,Oil,Giant,731.167,367.545,568.3,0.953,4,182.845,365.637,554.153,1210,Nepa-Botuoba Arch,BS000000628,NEPA - BOTUOBA,TYPE 1,,CARBONATE,brecciated dolomite,Neo-Proterozoic,Ediacaran,,,PC_P_NP_ED,3576,1.09,Stratigraphic,Pinch-out,Porosity pinch-out,"3, 38, 768",
giant_oil_and_gas_fields_of_the_world_co_yxz.224,POINT (55.659247 25.326683),222,Sajaa,,E,MIDDLE EAST,UAE,UAE - Sharjah,25.326683,55.659247,A,Onshore,1980,Gas,Giant,798.988,357.391,-99999.99,3.317,246,151.433,347.841,572.897,2019,Rub Al Khali Basin,BS000000031,OMAN MOUNTAINS FOLDBELT,TYPE 1,,CARBONATE,,Mesozoic,Cretaceous,Lower Cretaceous,,MZ_CT_L,10220,3.12,Structural,Anticline,Recumbent fold,"2, 3, 38, 861, 864",
giant_oil_and_gas_fields_of_the_world_co_yxz.225,POINT (112.566667 4.25),223,Central Luconia E-11,,G,ASIA AND OCEANIA,Malaysia,,4.25,112.566667,B,Offshore,1975,Gas,Giant,500,194.858,-99999.99,3,-99999.99,67.014,183.05,334.51,3702,Greater Sarawak Basin,BS000000126,SARAWAK - EAST NATUNA,TYPE 1,,CARBONATE,,Cenozoic,Neogene,Miocene,,CZ_NG_MIO,5100,1.55,Stratigraphic,Reef,,"38, 28, 78, 81",
giant_oil_and_gas_fields_of_the_world_co_yxz.226,POINT (112.316667 4.633333),224,Central Luconia F-06,,G,ASIA AND OCEANIA,Malaysia,,4.633333,112.316667,B,Offshore,1970,Gas,Giant,565,193.394,-99999.99,3.39,-99999.99,53.551,173.943,352.689,3702,Greater Sarawak Basin,BS000000126,SARAWAK - EAST NATUNA,TYPE 1,,CARBONATE,,Cenozoic,Neogene,Miocene,,CZ_NG_MIO,5100,1.55,Stratigraphic,Reef,,"2, 28, 78, 81",
giant_oil_and_gas_fields_of_the_world_co_yxz.227,POINT (112.566667 4.666667),225,Central Luconia F-23,,G,ASIA AND OCEANIA,Malaysia,,4.666667,112.566667,B,Offshore,1975,Gas,Giant,500,194.858,-99999.99,3,-99999.99,67.014,183.05,334.51,3702,Greater Sarawak Basin,BS000000126,SARAWAK - EAST NATUNA,TYPE 1,,CARBONATE,,Cenozoic,Neogene,Miocene,,CZ_NG_MIO,5100,1.55,Stratigraphic,Reef,,"38, 28, 78, 81",
giant_oil_and_gas_fields_of_the_world_co_yxz.228,POINT (97.25 5.05),226,Arun,,G,ASIA AND OCEANIA,Indonesia,,5.05,97.25,A,Onshore,1971,Gas,Giant,2281.667,801.046,-99999.99,13.69,-99999.99,231.774,727.207,1444.158,3822,North Sumatra Basin,BS000000231,NORTH SUMATRA - MERGUI,TYPE 3,,CARBONATE,limestone,Cenozoic,Paleogene,Oligocene,,CZ_PG_OLI,10000,3.05,Stratigraphic,Reef,,"2, 38, 299, 300",
giant_oil_and_gas_fields_of_the_world_co_yxz.229,POINT (64.869564 38.819717),227,Alan,,D,EASTERN EUROPE AND FORMER USSR,Uzbekistan,,38.819717,64.869564,A,Onshore,1976,Gas,Giant,987.333,395.266,-99999.99,5.924,-99999.99,141.827,374.206,669.766,1154,Amu-Darya Basin,BS000000066,AMU-DAR'YA,TYPE 2,,CARBONATE,algal limestone,Mesozoic,Jurassic,Upper Jurassic,,MZ_JR_U,8694,2.65,Stratigraphic,Reef,,3,
giant_oil_and_gas_fields_of_the_world_co_yxz.230,POINT (20.778508 29.043464),228,"Intisar (Idris) ""A""",,F,AFRICA,Libya,,29.043464,20.778508,A,Onshore,1967,Oil,Giant,1200,381.304,1200,-99999.99,-99999.99,92.386,332.961,718.565,2043,Sirte Basin,BS000000014,SIRTE,TYPE 1,,CARBONATE,,Cenozoic,Paleogene,Paleocene,,CZ_PG_PAL,9500,2.9,Stratigraphic,Reef,,"1, 2, 38, 480",
giant_oil_and_gas_fields_of_the_world_co_yxz.231,POINT (20.957667 28.910489),229,"Intisar (Idris) ""D""",,F,AFRICA,Libya,,28.910489,20.957667,A,Onshore,1967,Oil,Giant,1500,476.63,1500,-99999.99,-99999.99,115.483,416.202,898.207,2043,Sirte Basin,BS000000014,SIRTE,TYPE 1,,CARBONATE,,Cenozoic,Paleogene,Paleocene,,CZ_PG_PAL,9400,2.87,Stratigraphic,Reef,,"1, 2, 38, 477",
giant_oil_and_gas_fields_of_the_world_co_yxz.232,POINT (17.283333 29.95),230,Mabruk,,F,AFRICA,Libya,,29.95,17.283333,B,Onshore,1959,Oil,Giant,500,131.746,500,-99999.99,-99999.99,22.112,105.147,267.979,2043,Sirte Basin,BS000000014,SIRTE,TYPE 1,,CARBONATE,,Cenozoic,Paleogene,Paleocene,,CZ_PG_PAL,4000,1.22,Stratigraphic,Reef,,"2, 488",
giant_oil_and_gas_fields_of_the_world_co_yxz.233,POINT (55.291083 22.882381),231,Lekhwair,,E,MIDDLE EAST,Oman,,22.882381,55.291083,A,Onshore,1968,Oil,Giant,650,211.667,650,-99999.99,-99999.99,53.633,186.713,394.655,2019,Rub Al Khali Basin,BS000000033,RUB AL KHALI,TYPE 1,,CARBONATE,carbonate heterogeneity related to rudists,Mesozoic,Cretaceous,Lower Cretaceous,,MZ_CT_L,18285,5.57,Stratigraphic,Reef,,"3, 38, 94, 95, 96",
giant_oil_and_gas_fields_of_the_world_co_yxz.234,POINT (-103.265147 32.892292),232,Vacuum,,A,NORTH AMERICA,United States,USA - New Mexico,32.892292,-103.265147,A,Onshore,1929,Oil,Giant,524,75.723,524,-99999.99,-99999.99,2.898,38.968,185.303,5044,Permian Basin,BS000000609,MIDLAND - PERMIAN,TYPE 2,,CARBONATE,dolomite,Paleozoic,Permian,Cisuralian,,PZ_PR_CIS,6400,1.95,Stratigraphic,Reef,,"2, 38, 397, 398",
giant_oil_and_gas_fields_of_the_world_co_yxz.235,POINT (-100.960506 32.791531),233,Scurry,Skelly; Snyder; Diamond M,A,NORTH AMERICA,United States,USA - Texas,32.791531,-100.960506,A,Onshore,1948,Oil,Giant,1924.333,400.55,1701,1.34,-99999.99,39.707,276.424,885.52,5044,Permian Basin,BS000000609,MIDLAND - PERMIAN,TYPE 2,,CARBONATE,limestone,Paleozoic,Carboniferous,Mississippian,,PZ_CB_MS,5000,1.52,Stratigraphic,Reef,,"1, 2, 400, 401",
giant_oil_and_gas_fields_of_the_world_co_yxz.236,POINT (-113.933364 53.002208),234,Leduc-Woodbend,,A,NORTH AMERICA,Canada,Canada - Alberta,53.002208,-113.933364,A,Onshore,1947,Oil,Giant,500,101.974,500,-99999.99,-99999.99,9.626,69.377,226.918,5243,Alberta Basin,BS000000808,WEST CANADIAN - ALBERTA,TYPE 2,,CARBONATE,,Paleozoic,Devonian,Upper Devonian,,PZ_DV_U,5700,1.74,Stratigraphic,Reef,,"1, 2, 38, 201, 202",
giant_oil_and_gas_fields_of_the_world_co_yxz.237,POINT (-112.830125 53.014686),235,Bonnie Glen,,A,NORTH AMERICA,Canada,Canada - Alberta,53.014686,-112.830125,B,Onshore,1950,Oil,Giant,570,123.644,445,0.75,-99999.99,13.51,87.754,269.669,5243,Alberta Basin,BS000000808,WEST CANADIAN - ALBERTA,TYPE 2,,CARBONATE,,Paleozoic,Devonian,Upper Devonian,,PZ_DV_U,6710,2.05,Stratigraphic,Reef,,"2, 38, 192, 193, 194",
giant_oil_and_gas_fields_of_the_world_co_yxz.238,POINT (-115.473339 54.670883),236,Swan Hills South,,A,NORTH AMERICA,Canada,Canada - Alberta,54.670883,-115.473339,A,Onshore,1959,Oil,Giant,510,134.381,510,-99999.99,-99999.99,22.554,107.25,273.338,5243,Alberta Basin,BS000000808,WEST CANADIAN - ALBERTA,TYPE 2,,CARBONATE,,Paleozoic,Devonian,Upper Devonian,,PZ_DV_U,8000,2.44,Stratigraphic,Reef,,"2, 38, 208",
giant_oil_and_gas_fields_of_the_world_co_yxz.239,POINT (-115.646606 54.404228),237,Judy Creek,,A,NORTH AMERICA,Canada,Canada - Alberta,54.404228,-115.646606,A,Onshore,1959,Oil,Giant,600,158.095,600,-99999.99,-99999.99,26.534,126.176,321.575,5243,Alberta Basin,BS000000808,WEST CANADIAN - ALBERTA,TYPE 2,,CARBONATE,,Paleozoic,Devonian,Upper Devonian,,PZ_DV_U,-99999.99,-99999.99,Stratigraphic,Reef,,"2, 38, 197, 198",
giant_oil_and_gas_fields_of_the_world_co_yxz.240,POINT (-115.464447 54.856175),238,Swan Hills,,A,NORTH AMERICA,Canada,Canada - Alberta,54.856175,-115.464447,A,Onshore,1957,Oil,Giant,931,234.618,931,-99999.99,-99999.99,35.843,182.675,485.335,5243,Alberta Basin,BS000000808,WEST CANADIAN - ALBERTA,TYPE 2,,CARBONATE,,Paleozoic,Devonian,Upper Devonian,,PZ_DV_U,8100,2.47,Stratigraphic,Reef,,"1, 2, 38, 207",
giant_oil_and_gas_fields_of_the_world_co_yxz.241,POINT (-115.700353 54.341206),239,Kaybob South,,A,NORTH AMERICA,Canada,Canada - Alberta,54.341206,-115.700353,A,Onshore,1958,Oil,Giant,956.667,246.493,540,2.5,-99999.99,39.475,194.329,505.675,5243,Alberta Basin,BS000000808,WEST CANADIAN - ALBERTA,TYPE 2,,CARBONATE,,Paleozoic,Devonian,Upper Devonian,,PZ_DV_U,-99999.99,-99999.99,Stratigraphic,Reef,,"2, 38, 200, 199",
giant_oil_and_gas_fields_of_the_world_co_yxz.242,POINT (83 39),240,Tazhong-82,Takla-Makan Desert,G,ASIA AND OCEANIA,China,,39,83,B,Onshore,2005,Oil,Giant,666,666,666,-99999.99,-99999.99,666,666,666,3154,Tarim Basin,BS000000078,TARIM,TYPE 2,,CARBONATE,,Paleozoic,Cambrian,Furongian,,PZ_CM_FUR,-99999.99,-99999.99,Stratigraphic,Reef,,"1028, 1029",
giant_oil_and_gas_fields_of_the_world_co_yxz.243,POINT (-113.016431 53.916631),241,Redwater,,A,NORTH AMERICA,Canada,Canada - Alberta,53.916631,-113.016431,A,Onshore,1948,Oil,Giant,832,173.181,832,-99999.99,-99999.99,17.168,119.514,382.861,5243,Alberta Basin,BS000000808,WEST CANADIAN - ALBERTA,TYPE 2,,CARBONATE,,Paleozoic,Devonian,Upper Devonian,,PZ_DV_U,3300,1.01,Stratigraphic,Reef,Reef Complex,"1, 2, 38, 205, 206",
giant_oil_and_gas_fields_of_the_world_co_yxz.244,POINT (-119.19716 58.575798),242,Rainbow,,A,NORTH AMERICA,Canada,Canada - Alberta,58.575798,-119.19716,A,Onshore,1965,Oil,Giant,720,218.004,720,-99999.99,-99999.99,48.257,186.401,419.352,5243,Alberta Basin,BS000000808,WEST CANADIAN - ALBERTA,TYPE 2,,CARBONATE,,Paleozoic,Devonian,Upper Devonian,,PZ_DV_U,5905,1.8,Stratigraphic,Reef,Reef Complex,"1, 32, 33",
giant_oil_and_gas_fields_of_the_world_co_yxz.245,POINT (51.7 26.2),243,North Field,,E,MIDDLE EAST,Qatar,,26.2,51.7,B,Offshore,1971,Gas,Megagiant,176060,61811.039,-99999.99,900,26060,17884.329,56113.411,111435.377,2022,Qatar Arch,BS000000033,RUB AL KHALI,TYPE 1,,CARBONATE,dolomite,Mesozoic,Triassic,Upper Triassic,,MZ_TR_U,9070,2.77,Structural,Anticline,Regional arch,"3, 446, 544, 1145",
giant_oil_and_gas_fields_of_the_world_co_yxz.246,POINT (52.100002 26.499998),244,Pars South,,E,MIDDLE EAST,Iran,,26.499998,52.100002,B,Offshore,1991,Gas,Megagiant,77446.333,48498.574,1313,350,17800,31459.004,49359.745,64676.972,2022,Qatar Arch,BS000000033,RUB AL KHALI,TYPE 1,,CARBONATE,dolomite,Paleozoic,Permian,Lopingian,,PZ_PR_LOP,9348,2.85,Structural,Anticline,Regional arch,"3, 4, 445, 875. 1094",
giant_oil_and_gas_fields_of_the_world_co_yxz.247,POINT (48 24.61667),245,Farhah,,E,MIDDLE EAST,Saudi Arabia,,24.61667,48,B,Onshore,1984,Oil,Giant,623.333,313.339,600,0.14,-99999.99,155.879,311.713,472.426,2023,Widyan Basin-Int. Platform,BS000000038,WIDYAN - NORTH ARABIAN GULF,TYPE 1,,CARBONATE,calcarenite,Mesozoic,Jurassic,Upper Jurassic,,MZ_JR_U,5300,1.62,Structural,Fault Block,Regional horst,"3, 671",
giant_oil_and_gas_fields_of_the_world_co_yxz.248,POINT (-101 37),246,Hugoton,Panhandle,A,NORTH AMERICA,United States,USA - Oklahoma,37,-101,B,Onshore,1926,Gas,Supergiant,6591.667,902.499,-99999.99,39.55,-99999.99,29.611,441.802,2236.084,5058,Andarko Basin,BS000000371,ANADARKO - HUGOTON,TYPE 2,,CARBONATE,dolomite,Paleozoic,Permian,Cisuralian,,PZ_PR_CIS,2850,0.87,Stratigraphic,,,"1, 2, 6, 324, 1099, 1110",
